"COUNTY","COUNTYNAME","CITYNAME","REGION","STATE","COUNTYCODE","IsHotspot","Hotspot","UFOReports","CEs","UFOReports21stCent","RateUFOper100000","RateCEper100000","RateUFO21stCent","Rank","POP1990","POP1960","POPDIF6090","EDUC1960","Ocean","Lake","River","Interstate","Military","Nuclear","LONGITUDE","LATITUDE"
"Autauga","Autauga","Pratteville","US","AL","01","0",,"2","0",,"5.84419379346619","0.0",,,"34222.0","18739.0",,"262.0","0","0","1","1","0","0","86.5","32.48"
"Baldwin","Baldwin","Bay Minette","US","AL","02","0",,"28","2",,"28.4900284900285","2.03500203500204",,,"98280.0","49088.0",,"302.0","1","0","1","1","1","0","87.77","30.87"
"Barbour","Barbour","Clayton","US","AL","03","0",,"0","0",,"0.0","0.0",,,"25417.0","24700.0",,"202.0","0","1","0","0","0","0","85.48","31.88"
"Bibb","Bibb","Centreville","US","AL","04","0",,"0","0",,"0.0","0.0",,,"16576.0","14352.0",,"165.0","0","0","0","0","0","0","87.13","32.95"
"Blount","Blount","Oneonta","US","AL","05","0",,"4","3",,"10.1916021198532","7.64370158988993",,,"39248.0","25449.0",,"192.0","0","1","0","1","0","0","86.48","33.95"
"Bullock","Bullock","Union Springs","US","AL","06","0",,"0","0",,"0.0","0.0",,,"11042.0","13462.0",,"216.0","0","0","0","0","0","0","85.73","32.13"
"Butler","Butler","Greenville","US","AL","07","0",,"2","0",,"9.13575735428467","0.0",,,"21892.0","24560.0",,"205.0","0","0","0","1","0","0","86.67","31.83"
"Calhoun","Calhoun","Anniston","US","AL","08","0",,"11","1",,"9.47998000586035","0.861816364169123",,,"116034.0","95878.0",,"311.0","0","1","0","1","1","0","85.83","33.63"
"Chambers","Chambers","Lafayette","US","AL","09","0",,"5","3",,"13.5589543334418","8.13537260006508",,,"36876.0","37828.0",,"232.0","0","1","0","0","0","0","85.43","32.92"
"Cherokee","Cherokee","Centre","US","AL","10","0",,"2","0",,"10.2338433198588","0.0",,,"19543.0","16303.0",,"206.0","0","1","0","0","0","0","85.68","34.17"
"Chilton","Chilton","Clanton","US","AL","11","0",,"4","2",,"12.3236182143077","6.16180910715386",,,"32458.0","25693.0",,"187.0","0","1","0","1","0","0","86.63","32.83"
"Choctaw","Choctaw","Butler","US","AL","12","0",,"1","1",,"6.24297665126732","6.24297665126732",,,"16018.0","17870.0",,"187.0","0","0","1","0","0","0","88.25","32.07"
"Clarke","Clarke","Grove Hill","US","AL","13","0",,"1","0",,"3.67107195301028","0.0",,,"27240.0","25738.0",,"244.0","0","0","1","0","0","0","87.8","31.7"
"Clay","Clay","Ashland","US","AL","14","0",,"2","2",,"15.0920615756112","15.0920615756112",,,"13252.0","12400.0",,"194.0","0","0","0","0","0","0","85.83","33.25"
"Cleburne","Cleburne","Heflin","US","AL","15","0",,"4","0",,"31.4218381775334","0.0",,,"12730.0","10911.0",,"162.0","0","0","0","1","0","0","85.6","33.63"
"Coffee","Coffee","Elba","US","AL","16","0",,"6","0",,"14.9105367793241","0.0",,,"40240.0","30583.0",,"263.0","0","0","1","0","0","0","86.1","31.42"
"Colbert","Colbert","Tuscumbia","US","AL","17","0",,"4","1",,"7.74203538110169","1.93550884527542",,,"51666.0","46506.0",,"335.0","0","1","0","0","0","0","87.68","34.7"
"Conecuh","Conecuh","Evergreen","US","AL","18","0",,"1","0",,"7.11541198235378","0.0",,,"14054.0","17762.0",,"187.0","0","0","0","1","0","0","86.98","31.42"
"Coosa","Coosa","Rockford","US","AL","19","0",,"1","0",,"9.03913947392208","0.0",,,"11063.0","10726.0",,"211.0","0","1","0","0","0","0","86.25","32.9"
"Covington","Covington","Andalusia","US","AL","20","0",,"3","0",,"8.22413509512583","0.0",,,"36478.0","35631.0",,"218.0","0","0","0","0","0","0","86.5","31.33"
"Crenshaw","Crenshaw","Luverne","US","AL","21","0",,"0","0",,"0.0","0.0",,,"13635.0","14909.0",,"192.0","0","0","0","0","0","0","86.3","31.72"
"Cullman","Cullman","Cullman","US","AL","22","0",,"8","1",,"11.8320441335246","1.47900551669058",,,"67613.0","45572.0",,"176.0","0","1","0","1","0","0","86.83","34.17"
"Dale","Dale","Ozark","US","AL","23","0",,"1","1",,"2.01478854794189","2.01478854794189",,,"49633.0","31066.0",,"358.0","0","0","0","0","1","0","85.67","31.45"
"Dallas","Dallas","Selma","US","AL","24","0",,"7","1",,"14.543943486391","2.07770621234158",,,"48130.0","56667.0",,"326.0","0","1","1","0","0","0","87.02","32.4"
"De Kalb","De Kalb","Fort Payne","US","AL","25","0","Fyffe","34","4",,"62.2129512726208","7.31917073795539",,,"54651.0","41417.0",,"175.0","0","0","0","1","0","0","85.7","34.42"
"Elmore","Elmore","Wetumpka","US","AL","26","0",,"6","2",,"12.1926437715911","4.06421459053038",,,"49210.0","30524.0",,"252.0","0","1","1","1","0","0","86.22","32.55"
"Escambia","Escambia","Brewton","US","AL","27","0",,"3","1",,"8.44642153274396","2.81547384424799",,,"35518.0","33511.0",,"250.0","0","0","0","1","0","0","87.07","31.12"
"Etowah","Etowah","Gadsden","US","AL","28","0",,"14","1",,"14.0224358974359","1.00160256410256",,,"99840.0","96980.0",,"289.0","0","1","0","1","0","0","86.0","34.0"
"Fayette","Fayette","Fayette","US","AL","29","0",,"0","0",,"0.0","0.0",,,"17962.0","16148.0",,"209.0","0","0","0","0","0","0","87.83","33.7"
"Franklin","Franklin","Russellville","US","AL","30","0","Russellville","6","0",,"21.5718702811534","0.0",,,"27814.0","21988.0",,"206.0","0","0","0","0","0","0","87.7","34.5"
"Geneva","Geneva","Geneva","US","AL","31","0",,"1","0",,"4.2288662409608","0.0",,,"23647.0","22310.0",,"211.0","0","0","0","0","0","0","85.85","31.05"
"Greene","Greene","Eutaw","US","AL","32","0",,"0","0",,"0.0","0.0",,,"10153.0","13600.0",,"174.0","0","1","1","1","0","0","87.87","32.85"
"Hale","Hale","Greensboro","US","AL","33","0",,"2","1",,"12.9048909536714","6.45244547683572",,,"15498.0","19537.0",,"183.0","0","1","1","0","0","0","87.63","32.7"
"Henry","Henry","Abbeville","US","AL","34","0",,"0","0",,"0.0","0.0",,,"15374.0","15286.0",,"191.0","0","1","1","0","0","0","85.27","31.58"
"Houston","Houston","Dothan","US","AL","35","0",,"6","2",,"7.3772608230564","2.4590869410188",,,"81331.0","50718.0",,"294.0","0","0","1","0","0","1","85.42","31.2"
"Jackson","Jackson","Scottsboro","US","AL","36","0",,"3","1",,"6.27667587245795","2.09222529081932",,,"47796.0","36681.0",,"174.0","0","1","0","0","0","1","86.0","34.67"
"Jefferson","Jefferson","Birmingham","US","AL","37","1","Birmingham","68","8",,"10.4370515329419","1.22788841564023",,"535","651525.0","634864.0",,"368.0","0","1","0","1","0","0","86.92","33.5"
"Lamar","Lamar","Vernon","US","AL","38","0",,"2","0",,"12.7266942411709","0.0",,,"15715.0","14271.0",,"179.0","0","0","0","0","0","0","88.13","33.72"
"Lauderdale","Lauderdale","Florence","US","AL","39","1","Lexington","28","16",,"35.1489436487114","20.0851106564065",,"130","79661.0","61622.0",,"327.0","0","0","1","0","0","0","87.67","34.8"
"Lawrence","Lawrence","Moulton","US","AL","40","0",,"3","1",,"9.51988068416209","3.17329356138736",,,"31513.0","24501.0",,"178.0","0","1","0","1","0","0","87.3","34.47"
"Lee","Lee","Opelika","US","AL","41","0",,"14","2",,"16.064994377252","2.29499919675028",,,"87146.0","49754.0",,"359.0","0","1","1","1","0","0","85.43","32.65"
"Limestone","Limestone","Athens","US","AL","42","1",,"10","6",,"18.4723376743327","11.0834026045996",,"236","54135.0","36513.0",,"239.0","0","1","0","1","0","0","86.98","34.83"
"Lowndes","Lowndes","Hayneville","US","AL","43","0",,"4","1",,"31.6005688102386","7.90014220255965",,,"12658.0","15417.0",,"186.0","0","0","1","1","0","0","86.58","32.18"
"Macon","Macon","Tuskegee","US","AL","44","0",,"4","2",,"16.0462130937099","8.02310654685494",,,"24928.0","26717.0",,"295.0","0","0","0","1","0","0","85.68","32.42"
"Madison","Madison","Huntsville","US","AL","45","1",,"44","5",,"18.4168229306188","2.09282078757032",,"456","238912.0","173285.0",,"430.0","0","1","0","0","1","0","86.58","34.73"
"Marengo","Marengo","Linden","US","AL","46","0",,"2","2",,"8.66400970369087","8.66400970369087",,,"23084.0","27098.0",,"236.0","0","1","0","0","0","0","87.82","32.32"
"Marion","Marion","Hamilton","US","AL","47","0",,"4","1",,"13.4093194770365","3.35232986925914",,,"29830.0","21837.0",,"191.0","0","0","0","0","0","0","88.0","34.15"
"Marshall","Marshall","Guntersville","US","AL","48","0",,"11","0",,"15.5297040885475","0.0",,,"70832.0","48018.0",,"238.0","0","1","0","0","0","0","86.3","34.33"
"Mobile","Mobile","Mobile","US","AL","49","1","Mobile/Dawes","71","24",,"18.7511719482468","6.33842432053412",,"325","378643.0","314301.0",,"379.0","1","1","1","1","1","0","88.08","30.67"
"Monroe","Monroe","Monroeville","US","AL","50","0",,"0","0",,"0.0","0.0",,,"23968.0","22372.0",,"218.0","0","0","1","0","0","0","87.35","31.53"
"Montgomery","Montgomery","Montgomery","US","AL","51","1",,"28","5",,"13.3916828084272","2.39137193007628",,"483","209085.0","169210.0",,"447.0","0","0","1","1","1","0","86.33","32.36"
"Morgan","Morgan","Decatur","US","AL","52","0",,"9","3",,"8.99613166338474","2.99871055446158",,,"100043.0","60454.0",,"328.0","0","1","0","1","0","1","87.0","34.6"
"Perry","Perry","Marion","US","AL","53","0",,"1","0",,"7.83760482796457","0.0",,,"12759.0","17358.0",,"222.0","0","0","0","0","0","0","87.33","32.62"
"Pickens","Pickens","Carrollton","US","AL","54","0",,"0","0",,"0.0","0.0",,,"20699.0","21882.0",,"216.0","0","0","1","0","0","0","88.1","33.27"
"Pike","Pike","Troy","US","AL","55","0",,"2","0",,"7.24768979887661","0.0",,,"27595.0","25987.0",,"248.0","0","0","0","0","0","0","86.0","31.49"
"Randolph","Randolph","Wedowee","US","AL","56","0","Wadley","5","2",,"25.1496403601429","10.0598561440571",,,"19881.0","19479.0",,"200.0","0","0","0","0","0","0","85.29","33.2"
"Russell","Russell","Phenix City","US","AL","57","0",,"1","1",,"2.13401621852326","2.13401621852326",,,"46860.0","46351.0",,"172.0","0","0","1","0","0","0","85.01","32.28"
"St Clair","St Clair","Pell City","US","AL","58","0",,"6","1",,"6.03876889631434","1.00646148271906",,,"99358.0","25388.0",,"180.0","0","1","0","1","0","0","86.18","33.33"
"Shelby","Shelby","Columbiana","US","AL","59","0",,"7","1",,"13.9974804535184","1.99964006478834",,,"50009.0","32132.0",,"232.0","0","0","1","1","0","0","86.37","33.11"
"Sumter","Sumter","Livingston","US","AL","60","0",,"0","0",,"0.0","0.0",,,"16174.0","20041.0",,"202.0","0","0","1","1","0","0","88.12","32.35"
"Talladega","Talladega","Talladega","US","AL","61","0",,"8","1",,"10.7952015329186","1.34940019161483",,,"74107.0","65495.0",,"277.0","0","1","1","1","0","0","86.07","33.25"
"Tallapoosa","Tallapoosa","Dadeville","US","AL","62","0",,"4","1",,"10.3023746973677","2.57559367434194",,,"38826.0","35007.0",,"247.0","0","1","0","0","0","0","85.45","32.5"
"Tuscaloosa","Tuscaloosa","Tuscaloosa","US","AL","63","0",,"13","2",,"8.63661125948366","1.32870942453595",,,"150522.0","109047.0",,"340.0","0","1","0","1","0","0","87.33","33.12"
"Walker","Walker","Jasper","US","AL","64","0",,"9","4",,"13.2998374464312","5.91103886508054",,,"67670.0","54211.0",,"205.0","0","1","0","0","0","0","87.18","33.48"
"Washington","Washington","Chatom","US","AL","65","0",,"1","0",,"5.99017611117767","0.0",,,"16694.0","15372.0",,"199.0","0","0","1","0","0","0","88.17","31.28"
"Wilcox","Wilcox","Camden","US","AL","66","0",,"0","0",,"0.0","0.0",,,"13568.0","18739.0",,"203.0","0","1","1","0","0","0","87.19","32.0"
"Winston","Winston","Double Springs","US","AL","67","0",,"0","0",,"0.0","0.0",,,"22053.0","14858.0",,"186.0","0","1","0","0","0","0","87.24","34.08"
"Arkansas","Arkansas","Stuttgart","US","AR","01","0",,"4","0",,"18.4731907818778","0.0",,,"21653.0","23355.0",,"284.0","0","0","1","0","0","0","91.32","34.3"
"Ashley","Ashley","Hamburg","US","AR","02","0",,"5","2",,"20.5600559233521","8.22",,,"24319.0","24220.0",,"254.0","0","0","0","0","0","0","91.5","33.13"
"Baxter","Baxter","Mountain Home","US","AR","03","0","Mountain Home","15","3",,"48.098505739755","9.619701147951",,,"31186.0","9943.0",,"300.0","0","1","0","0","0","0","92.23","36.21"
"Benton","Benton","Bentonville","US","AR","04","1","Rogers/Bentonville","32","11",,"32.8208494446097","10.2565154514405",,"189","97499.0","36272.0",,"334.0","0","1","0","0","0","0","94.13","36.23"
"Boone","Boone","Harrison","US","AR","05","0","Harrison","10","2",,"35.3394352758243","7.06788705516486",,,"28297.0","16116.0",,"316.0","0","1","0","0","0","0","93.07","36.13"
"Bradley","Bradley","Warren","US","AR","06","0",,"3","0",,"25.4388196387688","0.0",,,"11793.0","14029.0",,"231.0","0","0","0","0","0","0","92.05","33.38"
"Calhoun","Calhoun","Hampton","US","AR","07","0",,"0","0",,"0.0","0.0",,,"5826.0","5991.0",,"209.0","0","0","0","0","0","0","92.28","33.33"
"Carroll","Carroll","Berryville","US","AR","08","0","Berryville","11","4",,"58.9685858260963","21.4431221185805",,,"18654.0","11284.0",,"291.0","0","1","0","0","0","0","93.35","36.22"
"Chicot","Chicot","Lake Village","US","AR","09","0",,"1","1",,"6.36415706739642","6.36415706739642",,,"15713.0","18990.0",,"204.0","0","0","1","0","0","0","91.19","33.2"
"Clark","Clark","Arkadelphia","US","AR","10","0",,"2","0",,"9.32966366562485","0.0",,,"21437.0","20950.0",,"301.0","0","1","0","1","0","0","93.06","34.07"
"Clay","Clay","Piggott","US","AR","11","0","Piggott","14","4",,"77.3181642458718","22.0909040702491",,,"18107.0","21258.0",,"169.0","0","0","1","0","0","0","90.18","36.36"
"Cleburne","Cleburne","Heber Springs","US","AR","12","0",,"2","0",,"10.3034361959714","0.0",,,"19411.0","9059.0",,"215.0","0","1","0","0","0","0","92.01","35.3"
"Cleveland","Cleveland","Rison","US","AR","13","0",,"0","0",,"0.0","0.0",,,"7781.0","6944.0",,"170.0","0","0","0","0","0","0","92.11","33.58"
"Columbia","Columbia","Magnolia","US","AR","14","0",,"6","1",,"23.3544821143591","3.89241368572652",,,"25691.0","26400.0",,"305.0","0","0","0","0","0","0","93.16","33.17"
"Conway","Conway","Morrilton","US","AR","15","0","Morrilton","10","1",,"52.216594433711","5.2216594433711",,,"19151.0","15430.0",,"245.0","0","1","1","1","0","0","92.45","35.09"
"Craighead","Craighead","Jonesboro","US","AR","16","0",,"11","3",,"15.9522014037937","4.35",,,"68956.0","48253.0",,"273.0","0","0","0","0","0","0","90.41","35.5"
"Crawford","Crawford","Van Buren","US","AR","17","0",,"8","2",,"18.8266302685148","4.7066575671287",,,"42493.0","21318.0",,"233.0","0","0","1","1","0","0","94.17","35.28"
"Crittenden","Crittenden","Marion","US","AR","18","0",,"6","0",,"12.0146578826168","0.0",,,"49939.0","47564.0",,"208.0","0","0","1","1","0","0","90.12","35.12"
"Cross","Cross","Wynne","US","AR","19","0",,"0","0",,"0.0","0.0",,,"19225.0","19551.0",,"195.0","0","0","0","0","0","0","90.48","35.14"
"Dallas","Dallas","Fordyce","US","AR","20","0",,"3","1",,"31.2044934470564","10.4",,,"9614.0","10522.0",,"238.0","0","0","1","0","0","0","92.23","33.49"
"Desha","Desha","Arkansas City","US","AR","21","0",,"1","0",,"5.95308965353018","0.0",,,"16798.0","20770.0",,"213.0","0","0","1","0","0","0","91.13","33.35"
"Drew","Drew","Monticello","US","AR","22","0",,"2","2",,"11.5147676895619","11.5147676895619",,,"17369.0","15213.0",,"222.0","0","1","0","0","0","0","91.49","33.38"
"Faulkner","Faulkner","Conway","US","AR","23","0",,"12","3",,"19.99800019998","4.999500049995",,,"60006.0","24303.0",,"321.0","0","1","1","1","0","0","92.27","35.05"
"Franklin","Franklin","Ozark","US","AR","24","0",,"0","0",,"0.0","0.0",,,"14897.0","10213.0",,"240.0","0","0","1","1","0","0","93.5","35.3"
"Fulton","Fulton","Salem","US","AR","25","0",,"2","0",,"19.9262727906745","0.0",,,"10037.0","6657.0",,"166.0","0","1","0","0","0","0","91.51","36.21"
"Garland","Garland","Hot Springs","US","AR","26","1","Hot Springs","24","5",,"32.6988841505784","5.44981402509639",,"253","73397.0","46697.0",,"331.0","0","1","1","0","0","0","93.02","34.3"
"Grant","Grant","Sheridan","US","AR","27","0",,"3","1",,"21.5084599942644","7.1694866647548",,,"13948.0","8294.0",,"238.0","0","0","0","0","0","0","92.22","34.18"
"Greene","Greene","Paragould","US","AR","28","1","Paragould","11","5",,"34.5868444220853","12.5770343353037",,"153","31804.0","25198.0",,"204.0","0","0","1","0","0","0","90.3","36.02"
"Hempstead","Hempstead","Hope","US","AR","29","0",,"7","1",,"32.3759308080107","0.0",,,"21621.0","19661.0",,"263.0","0","1","1","1","0","0","93.39","33.4"
"Hot Spring","Hot Spring","Malvern","US","AR","30","0",,"4","1",,"15.3168677005552","3.82921692513881",,,"26115.0","21893.0",,"281.0","0","1","0","1","0","0","92.5","34.21"
"Howard","Howard","Nashville","US","AR","31","0","Nashville","7","5",,"51.5881789372835","36.8486992409168",,,"13569.0","10878.0",,"273.0","0","1","0","0","0","0","93.5","33.57"
"Independence","Independence","Batesville","US","AR","32","0",,"5","0",,"16.0297512182611","0.0",,,"31192.0","20048.0",,"247.0","0","0","0","0","0","0","91.39","35.45"
"Izard","Izard","Melbourne","US","AR","33","0",,"1","0",,"8.79971840901091","0.0",,,"11364.0","6766.0",,"166.0","0","0","0","0","0","0","91.9","36.0"
"Jackson","Jackson","Newport","US","AR","34","0","Newport","8","2",,"42.2297297297297","10.5574324324324",,,"18944.0","22843.0",,"201.0","0","0","0","1","0","0","91.16","35.35"
"Jefferson","Jefferson","Pine Bluff","US","AR","35","0",,"7","2",,"8.18837951969305","2.33953700562659",,,"85487.0","81373.0",,"309.0","0","0","1","1","1","1","92.0","34.13"
"Johnson","Johnson","Clarksville","US","AR","36","0",,"5","2",,"27.4408649360628","5.48817298721256",,,"18221.0","12421.0",,"250.0","0","1","1","1","0","0","93.29","35.29"
"Lafayette","Lafayette","Lewisville","US","AR","37","0",,"0","0",,"0.0","0.0",,,"9643.0","11030.0",,"224.0","0","1","1","0","0","0","93.38","33.21"
"Lawrence","Lawrence","Walnut Ridge","US","AR","38","0","Imboden","5","0",,"28.6418055794237","0.0",,,"17457.0","17267.0",,"194.0","0","0","0","0","0","0","90.58","36.03"
"Lee","Lee","Marianna","US","AR","39","0",,"1","0",,"7.66107408258638","0.0",,,"13053.0","21001.0",,"142.0","0","0","1","0","0","0","90.49","34.46"
"Lincoln","Lincoln","Star City","US","AR","40","0",,"0","0",,"0.0","0.0",,,"13690.0","14447.0",,"174.0","0","0","1","0","0","0","91.52","33.56"
"Little River","Little River","Ashdown","US","AR","41","0","Ashdown/Foreman","7","2",,"50.121724187312","14.3204926249463",,,"13966.0","9211.0",,"225.0","0","1","1","0","0","0","94.09","33.4"
"Logan","Logan","Paris","US","AR","42","0",,"1","0",,"4.86452303351656","0.0",,,"20557.0","15957.0",,"225.0","0","1","1","0","0","0","93.46","35.17"
"Lonoke","Lonoke","Lonoke","US","AR","43","0",,"8","2",,"20.3728226545788","5.0932056636447",,,"39268.0","24551.0",,"229.0","0","0","0","1","0","0","91.56","34.46"
"Madison","Madison","Huntsville","US","AR","44","0","Huntsville","7","3",,"60.2513341366845","25.8220003442933",,,"11618.0","9068.0",,"142.0","0","0","0","0","0","0","93.46","36.04"
"Marion","Marion","Yellville","US","AR","45","0","Flippin","8","2",,"66.6611115740355","16.6652778935089",,,"12001.0","6041.0",,"288.0","0","1","1","0","0","0","92.68","36.2"
"Miller","Miller","Texarkana","US","AR","46","1","Texarkana","25","11",,"64.9907713104739","28.5959393766085",,"86","38467.0","31686.0",,"283.0","0","0","1","1","0","0","94.02","33.28"
"Mississippi","Mississippi","Blythville","US","AR","47","0",,"8","2",,"13.9069969578444","3.4767492394611",,,"57525.0","70174.0",,"226.0","0","0","1","1","1","0","89.56","35.56"
"Monroe","Monroe","Clarendon","US","AR","48","0",,"1","0",,"8.82378893496868","0.0",,,"11333.0","17327.0",,"190.0","0","0","0","1","0","0","91.19","34.41"
"Montgomery","Montgomery","Mount Ida","US","AR","49","0",,"1","1",,"12.7534753220253","12.7534753220253",,,"7841.0","5370.0",,"213.0","0","1","0","0","0","0","93.38","34.32"
"Nevada","Nevada","Prescott","US","AR","50","0",,"0","0",,"0.0","0.0",,,"10101.0","10700.0",,"206.0","0","0","0","1","0","0","93.25","33.49"
"Newton","Newton","Jasper","US","AR","51","0","Boxley","6","0",,"78.2676754500391","0.0",,,"7666.0","5963.0",,"140.0","0","0","0","0","0","0","93.11","36.0"
"Ouachita","Ouachita","Camden","US","AR","52","0",,"3","1",,"9.81225878197161","3.27075292732387",,,"30574.0","31641.0",,"301.0","0","1","0","0","0","0","92.49","33.32"
"Perry","Perry","Perryville","US","AR","53","0",,"4","0",,"50.1945037018446","0.0",,,"7969.0","4927.0",,"192.0","0","0","1","0","0","0","92.48","35.0"
"Phillips","Phillips","Helena","US","AR","54","0",,"2","0",,"6.93529370968861","0.0",,,"28838.0","43997.0",,"197.0","0","0","1","0","0","0","90.35","34.3"
"Pike","Pike","Murfreesboro","US","AR","55","0",,"0","0",,"0.0","0.0",,,"10086.0","7864.0",,"190.0","0","1","0","0","0","0","93.42","34.04"
"Poinsett","Poinsett","Harrisburg","US","AR","56","0","Trumann/Harrisburg","14","3",,"56.7628932857606","12.163477132663",,,"24664.0","30834.0",,"169.0","0","0","0","0","0","0","90.6","35.6"
"Polk","Polk","Mena","US","AR","57","0",,"2","0",,"11.529371072808","0.0",,,"17347.0","11981.0",,"238.0","0","0","0","0","0","0","94.3","34.6"
"Pope","Pope","Russellville","US","AR","58","0",,"15","1",,"32.6918466534446","2.17945644356298",,,"45883.0","21177.0",,"275.0","0","1","1","1","0","1","93.06","35.17"
"Prairie","Prairie","Des Arc","US","AR","59","0",,"0","0",,"0.0","0.0",,,"9518.0","10515.0",,"217.0","0","1","0","1","0","0","91.3","34.58"
"Pulaski","Pulaski","Little Rock","US","AR","60","0",,"66","4",,"18.8754790367786","0.857976319853572",,,"349660.0","242980.0",,"468.0","0","0","1","1","1","0","92.17","34.42"
"Randolph","Randolph","Pocahontas","US","AR","61","0",,"6","0",,"36.2362604179249","0.0",,,"16558.0","12520.0",,"211.0","0","0","0","0","0","0","91.0","36.15"
"St Francis","St Francis","Forrest City","US","AR","62","0",,"3","1",,"10.527423939362","7.01828262624136",,,"28497.0","33303.0",,"190.0","0","0","0","1","0","0","90.8","35.0"
"Saline","Saline","Waldron","US","AR","63","0",,"3","2",,"4.67413489553309","3.11608993035539",,,"64183.0","28956.0",,"250.0","0","1","0","1","0","0","92.35","34.34"
"Searcy","Searcy","Marshall","US","AR","65","0","Marshall","14","1",,"178.548654508354","12.7534753220253",,,"7841.0","8124.0",,"157.0","0","0","0","0","0","0","92.4","35.54"
"Sebastian","Sebastian","Fort Smith","US","AR","66","1","Fort Smith","36","6",,"36.1482076513706","6.02470127522844",,"251","99590.0","66685.0",,"400.0","0","0","1","1","1","0","94.27","35.22"
"Sevier","Sevier","De Queen","US","AR","67","0",,"3","1",,"21.9989733812422","7.33299112708074",,,"13637.0","10156.0",,"265.0","0","1","0","0","0","0","94.2","34.02"
"Sharp","Sharp","Hardy","US","AR","68","0",,"1","0",,"7.0876745339854","0.0",,,"14109.0","6319.0",,"218.0","0","0","0","0","0","0","91.29","36.19"
"Stone","Stone","Mountain View","US","AR","69","0",,"3","0",,"30.690537084399","0.0",,,"9775.0","6294.0",,"166.0","0","0","0","0","0","0","92.08","35.51"
"Union","Union","El Dorado","US","AR","70","0",,"7","0",,"14.9831974143282","0.0",,,"46719.0","49518.0",,"382.0","0","0","0","0","0","0","92.4","33.12"
"Van Buren","Van Buren","Clinton","US","AR","71","0",,"1","0",,"7.13877784123358","0.0",,,"14008.0","7228.0",,"169.0","0","1","0","0","0","0","92.28","35.34"
"Washington","Washington","Fayetteville","US","AR","72","1","Springdale","39","8",,"34.3888051212867","6.17234963715402",,"237","113409.0","55797.0",,"391.0","0","1","0","0","0","0","94.1","36.03"
"White","White","Searcy","US","AR","73","0",,"8","1",,"14.6316482551759","1.82895603189699",,,"54676.0","32745.0",,"241.0","0","0","0","0","0","0","91.43","35.14"
"Woodruff","Woodruff","Augusta","US","AR","74","0",,"3","0",,"31.5126050420168","0.0",,,"9520.0","13954.0",,"193.0","0","0","0","0","0","0","91.21","35.16"
"Yell","Yell","Dardanelle","US","AR","75","0",,"3","0",,"16.8928430654879","0.0",,,"17759.0","11940.0",,"221.0","0","1","1","0","0","0","93.09","35.11"
"Prince of Wales","PRINCE OF WALES",,"US","AK","01","0",,"1",,,,,,,,"1772.0",,"440.0",,,,,,,"0.0","0.0"
"Ketchikan","Ketchikan",,"US","AK","02","0",,,,,,,,,,"10070.0",,"497.0",,,,,,,"0.0","0.0"
"Wrangell Petersburg","Wrangell Petersburg",,"US","AK","03","0",,"5","1",,,,,,,"4181.0",,"363.0",,,,,,,"0.0","0.0"
"Sitka","Sitka",,"US","AK","04","0",,,,,,,,,,"6690.0",,"467.0",,,,,,,"0.0","0.0"
"Juneau","Juneau",,"US","AK","05","0",,"3",,,,,,,,"9745.0",,"646.0",,,,,,,"0.0","0.0"
"Lynn Canal","LYNN CANAL=ICY STRAI",,"US","AK","06","0",,"0",,,,,,,,"2945.0",,"421.0",,,,,,,"0.0","0.0"
"Cordova","CORDOVA=MCCARTHY",,"US","AK","07","0",,,,,,,,,,"1759.0",,"509.0",,,,,,,"0.0","0.0"
"Valdez Cordova","VALDEZ=CHITINA=WHITT",,"US","AK","08","0",,"4",,,,,,,,"2844.0",,"512.0",,,,,,,"0.0","0.0"
"Palmer","PALMER=WASILLA=TALKE",,"US","AK","09","0",,,,,,,,,,"5188.0",,"506.0",,,,,,,"0.0","0.0"
"Anchorage","Anchorage","Anchorage","US","AK","10","0",,"61","2",,,,,,,"82833.0",,"652.0",,,,,,,"0.0","0.0"
"Seward","Seward",,"US","AK","11","0",,,,,,,,,,"2956.0",,"517.0",,,,,,,"0.0","0.0"
"Kenai-Cook","KENAI-COOK",,"US","AK","12","0",,"16","3",,,,,,,"6095.0",,"496.0",,,,,,,"0.0","0.0"
"Kodiak Island","Kodiak Island",,"US","AK","13","0",,"6","1",,,,,,,"7174.0",,"491.0",,,,,,,"0.0","0.0"
"Aleutians","Aleutian Islands",,"US","AK","14","0",,"8","2",,,,,,,"6011.0",,"468.0",,,,,,,"0.0","0.0"
"Bristol Bay","Bristol Bay",,"US","AK","15","0",,"1",,,,,,,,"4024.0",,"313.0",,,,,,,"0.0","0.0"
"Bethel","Bethel",,"US","AK","16","0",,"8",,,,,,,,"5537.0",,"138.0",,,,,,,"0.0","0.0"
"Kuskokwim","Kuskokwim",,"US","AK","17","0",,"0",,,,,,,,"2301.0",,"297.0",,,,,,,"0.0","0.0"
"Yukon Koyukuk","Yukon Koyukuk",,"US","AK","18","0",,"8","5",,,,,,,"4097.0",,"402.0",,,,,,,"0.0","0.0"
"Fairbanks","Fairbanks",,"US","AK","19","0",,"27","1",,,,,,,"43412.0",,"614.0",,,,,,,"0.0","0.0"
"Upper Yukon","Upper Yukon",,"US","AK","20","0",,,,,,,,,,"1619.0",,"273.0",,,,,,,"0.0","0.0"
"Barrow","Barrow",,"US","AK","21","0",,,,,,,,,,"2133.0",,"310.0",,,,,,,"0.0","0.0"
"Kobuk","Kobuk",,"US","AK","22","0",,,,,,,,,,"3560.0",,"114.0",,,,,,,"0.0","0.0"
"Nome","Nome","Nome","US","AK","23","0",,"17","4",,"485.714285714286","114.285714285714",,,"3500.0","6091.0",,"253.0","1","0","0","0","0","0","165.42","64.52"
"Wade Hampton","Wade Hampton",,"US","AK","24","0",,,,,,,,,,"3128.0",,"70.0",,,,,,,"0.0","0.0"
"Apache","Apache","St Johns","US","AZ","01","0",,"14","2",,"22.7305937555812","3.24722767936874",,,"61591.0","30438.0",,"208.0","0","0","0","1","0","0","109.24","34.3"
"Cochise","Cochise","Bisbee","US","AZ","02","1","Bisbee/Douglas","46","5",,"47.1195607637466","5.12169138736376",,"220","97624.0","55039.0",,"445.0","0","0","0","1","1","0","109.55","31.27"
"Coconino","Coconino","Flagstaff","US","AZ","03","1","Flagstaff/Sedona","125","28",,"129.411642906689","28.9882080110983",,"52","96591.0","41857.0",,"429.0","0","1","1","1","1","1","111.63","35.2"
"Gila","Gila","Globe","US","AZ","04","0","Payson/San Carlos Reservoir","18","5",,"44.7583051521782","12.4328625422717",,,"40216.0","25745.0",,"241.0","0","1","0","0","0","0","110.48","33.23"
"Graham","Graham","Safford","US","AZ","05","0","Bylas","11","3",,"41.4250207125104","11.2977329215937",,,"26554.0","14045.0",,"403.0","0","0","0","0","0","0","109.43","32.5"
"Greenlee","Greenlee","Clifton","US","AZ","06","0","Morenci","7","0",,"87.4125874125874","0.0",,,"8008.0","11509.0",,"343.0","0","0","0","0","0","0","109.17","33.04"
"Maricopa","Maricopa","Phoenix","US","AZ","07","1","Phoenix","717","30",,"33.7872702571649","1.41369331619937",,"355","2122101.0","663510.0",,"477.0","0","0","0","1","1","1","112.03","33.3"
"Mohave","Mohave","Kingman","US","AZ","08","1","Kingman","61","6",,"65.242735061018","6.41731820272308",,"163","93497.0","7736.0",,"421.0","0","1","1","1","0","0","114.02","35.12"
"Navajo","Navajo","Holbrook","US","AZ","09","1","Heber","28","5",,"36.0555255092843","6.43848669808648",,"245","77658.0","37994.0",,"329.0","0","0","0","1","0","0","110.11","34.54"
"Pima","Pima","Tucson","US","AZ","10","1","Tucson","218","27",,"32.6895393474088","4.04870441458733",,"303","666880.0","265660.0",,"517.0","0","0","0","1","1","0","110.57","32.15"
"Pinal","Pinal","Florence","US","AZ","11","1","Apache Junction","67","6",,"57.5705238917674","5.15556930374037",,"188","116379.0","62703.0",,"294.0","0","0","0","1","0","0","111.22","33.02"
"Santa Cruz","Santa Cruz","Nogales","US","AZ","12","0","Nogales","15","2",,"50.5458956732713","6.73945275643618",,,"29676.0","10808.0",,"397.0","0","0","0","1","0","0","110.56","31.2"
"Yavapai","Yavapai","Prescott","US","AZ","13","1","Prescott/Camp Verde/Fria R.","86","6",,"79.8410605863676","5.57030655253728",,"144","107714.0","28912.0",,"428.0","0","0","0","1","0","0","112.28","34.34"
"Yuma","Yuma","Yuma","US","AZ","14","1","Parker/Yuma","63","9",,"58.9363393984751","8.41947705692502",,"158","106895.0","55833.0",,"397.0","0","0","1","1","1","0","114.39","32.4"
"Alameda","Alameda","Oakland","US","CA","01","1",,"230","19",,"17.9802404974429","1.48532421500615",,"473","1279182.0","908209.0",,"517.0","1","0","0","1","1","1","122.15","37.5"
"Alpine","Alpine","Markleeville","US","CA","02","0",,"6","1",,"539.083557951482","89.8472596585804",,,"1113.0","397.0",,"329.0","0","0","0","0","0","0","119.46","38.41"
"Amador","Amador","Jackson","US","CA","03","0",,"9","0",,"29.9610506341756","0.0",,,"30039.0","9990.0",,"459.0","0","0","0","0","0","0","120.49","38.19"
"Butte","Butte","Oroville","US","CA","04","1","Chico/Oroville/Paradise","96","22",,"52.7124972545574","12.0799472875027",,"148","182120.0","82030.0",,"453.0","0","1","1","0","0","0","121.34","39.31"
"Calaveras","Calaveras","San Aandreas","US","CA","05","0",,"6","0",,"18.7511719482468","0.0",,,"31998.0","10289.0",,"398.0","0","1","0","0","0","0","120.41","38.1"
"Colusa","Colusa","Colusa","US","CA","06","1","Colusa","12","6",,"73.7327188940092","36.8663594470046",,"70","16275.0","12075.0",,"475.0","0","1","1","1","0","0","122.0","39.18"
"Contra Costa","Contra Costa","Martinez","US","CA","07","1",,"167","10",,"20.778070302041","1.24419582646952",,"464","803732.0","409030.0",,"553.0","1","0","1","1","0","0","122.1","38.0"
"Del Norte","Del Norte","Crescent City","US","CA","08","0","Crescent City","19","0",,"80.9889173060529","0.0",,,"23460.0","17771.0",,"386.0","1","0","0","0","0","0","124.13","41.46"
"El Dorado","El Dorado","Placerville","US","CA","09","1","Pollock Pines","48","5",,"38.0967498710266","3.96841144489861",,"278","125995.0","43805.0",,"481.0","0","1","0","1","0","0","120.5","38.43"
"Fresno","Fresno","Fresno","US","CA","10","1",,"110","10",,"16.4796476351706","1.49814978501551",,"489","667490.0","365945.0",,"408.0","0","1","0","1","1","0","119.47","36.41"
"Glenn","Glenn","Willows","US","CA","11","1","Orland","16","7",,"64.5213323655133","28.2280829099121",,"90","24798.0","17245.0",,"447.0","0","1","1","1","0","0","122.1","39.32"
"Humboldt","Humboldt","Eureka","US","CA","12","1","Eureka/Arcada/Willow Creek","75","15",,"62.9627764065884","12.5925552813177",,"134","119118.0","104892.0",,"421.0","1","0","0","1","0","1","124.1","40.49"
"Imperial","Imperial","El Centro","US","CA","13","1","El Centro/Imperial","43","5",,"39.3401827946168","4.57443985983916",,"261","109303.0","78019.0",,"338.0","0","1","1","1","1","0","115.33","32.47"
"Inyo","Inyo","Independence","US","CA","14","1","Bishop","31","5",,"169.574968546578","27.3508013784804",,"45","18281.0","11684.0",,"525.0","0","0","0","0","1","0","118.4","37.35"
"Kern","Kern","Bakersfield","US","CA","15","1","Bakersfield","199","33",,"36.6160849493171","6.07201408707268",,"249","543477.0","291984.0",,"420.0","0","0","0","1","1","0","119.0","35.25"
"Kings","Kings","Hanford","US","CA","16","0",,"21","1",,"20.6959761109304","0.985522671949068",,,"101469.0","49954.0",,"338.0","0","1","0","1","1","0","119.39","36.19"
"Lake","Lake","Lakeport","US","CA","17","0",,"26","0",,"51.3519385356797","0.0",,,"50631.0","13786.0",,"401.0","0","1","0","0","0","0","122.56","39.04"
"Lassen","Lassen","Susanville","US","CA","18","0",,"6","0",,"21.7407058482499","0.0",,,"27598.0","17053.0",,"424.0","0","1","0","0","1","0","120.4","40.26"
"Los Angeles","Los Angeles","Los Angeles","US","CA","19","1","Los Angeles/Topanga","1667","186",,"18.807551587354","2.0985030565374",,"454","8863461.0","6038771.0",,"531.0","1","0","0","1","1","1","118.15","34.0"
"Madera","Madera","Madera","US","CA","20","0",,"22","0",,"24.9744579407424","0.0",,,"88090.0","40468.0",,"326.0","0","0","0","0","0","0","120.04","36.57"
"Marin","Marin","San Rafael","US","CA","21","1","Novato","84","8",,"36.5065016341006","3.47680967943815",,"299","230096.0","146820.0",,"671.0","1","0","0","1","0","0","122.3","37.58"
"Mariposa","Mariposa","Mariposa","US","CA","22","0","Yosemite Natl Park","16","0",,"111.872465389456","0.0",,,"14302.0","5064.0",,"481.0","0","1","0","0","0","0","119.58","37.3"
"Mendocino","Mendocino","Ukiah","US","CA","23","1","Ukiah/ Pt Arena","39","7",,"48.5406683676644","8.71242765573465",,"174","80345.0","51059.0",,"414.0","1","0","0","0","0","0","123.12","39.09"
"Merced","Merced","Merced","US","CA","24","1",,"33","8",,"18.497446791814","4.48422952528825",,"383","178403.0","90446.0",,"392.0","0","1","0","1","0","0","120.29","37.17"
"Modoc","Modoc","Alturas","US","CA","25","0","Alturas","11","3",,"113.659847075842","30.9981401115933",,,"9678.0","8308.0",,"505.0","0","1","0","0","0","0","120.57","41.5"
"Mono","Mono","Bridgeport","US","CA","26","0",,"11","4",,"110.486139011651","40.1767778224186",,,"9956.0","2213.0",,"621.0","0","1","0","0","0","0","119.15","38.14"
"Monterey","Monterey","Salinas","US","CA","27","1",,"80","6",,"22.4933925659338","1.68700444244503",,"440","355660.0","198351.0",,"494.0","1","0","0","1","1","0","121.4","36.39"
"Napa","Napa","Napa","US","CA","28","0",,"29","2",,"26.1815555455243","1.80562452038099",,,"110765.0","65890.0",,"446.0","0","1","0","1","0","0","122.18","38.19"
"Nevada","Nevada","Nevada City","US","CA","29","0",,"20","4",,"25.4744618519934","5.09489237039868",,,"78510.0","20911.0",,"462.0","0","0","0","1","0","0","121.0","39.16"
"Orange","Orange","Santa Ana","US","CA","30","1",,"392","53",,"16.2618084790397","2.19866288109465",,"468","2410556.0","703925.0",,"577.0","1","0","0","1","1","1","117.54","33.44"
"Placer","Placer","Auburn","US","CA","31","1","Roseville/Cisco Grove","62","7",,"35.8804601958379","4.05101969953008",,"289","172796.0","56998.0",,"436.0","0","1","0","1","1","0","121.04","38.53"
"Plumas","Plumas","Quincy","US","CA","32","0","Keddie","15","3",,"75.9916915750545","15.1983383150109",,,"19739.0","11620.0",,"446.0","0","1","0","0","0","0","120.56","39.56"
"Riverside","Riverside","Riverside","US","CA","33","1",,"298","47",,"25.4610979201359","4.01567651760532",,"344","1170413.0","306191.0",,"494.0","0","1","0","1","1","0","117.22","33.59"
"Sacramento","Sacramento","Sacramento","US","CA","34","1","Sacramento","196","14",,"18.82408984085","1.344577845775",,"471","1041219.0","502778.0",,"558.0","1","0","1","1","1","1","121.3","38.32"
"San Benito","San Benito","Hollister","US","CA","35","0",,"8","0",,"21.8001471509933","0.0",,,"36697.0","15396.0",,"344.0","0","0","0","1","0","0","121.25","36.49"
"San Bernardino","San Bernardino","San Bernardino","US","CA","36","1",,"358","40",,"25.2400626066357","2.82011872699841",,"382","1418380.0","503591.0",,"484.0","0","1","0","1","1","0","117.18","34.07"
"San Diego","San Diego","San Diego","US","CA","37","1","San Diego","480","36",,"19.2152492217824","1.44114369163368",,"469","2498016.0","1033011.0",,"546.0","1","0","0","1","1","1","117.1","32.45"
"San Francisco","San Francisco","San Francisco","US","CA","38","1","San Francisco","180","16",,"24.8632864568297","2.21006990727375",,"404","723959.0","740316.0",,"510.0","1","0","0","1","1","0","122.27","37.45"
"San Joaquin","San Joaquin","Stockton","US","CA","39","1",,"54","8",,"11.2353004818696","1.66448896027697",,"518","480628.0","249989.0",,"369.0","0","0","1","1","1","1","121.2","37.59"
"San Luis Obispo","San Luis Obispo","San Luis Obispo","US","CA","40","0",,"63","4",,"29.0106003812822","1.84194288135125",,,"217162.0","81044.0",,"460.0","1","1","0","1","0","0","120.4","35.16"
"San Mateo","San Mateo","Redwood City","US","CA","41","1",,"93","8",,"14.3159955851317","1.23148349119412",,"508","649623.0","444387.0",,"619.0","1","1","0","1","0","0","122.15","37.28"
"Santa Barbara","Santa Barbara","Santa Barbara","US","CA","42","1",,"112","11",,"30.3023744074804","2.97612605787754",,"341","369608.0","168962.0",,"559.0","1","1","0","1","1","1","119.41","34.25"
"Santa Clara","Santa Clara","San Jose","US","CA","43","1","San Jose","235","29",,"15.6920145007569","1.93646136392319",,"478","1497577.0","642315.0",,"562.0","1","1","0","1","1","1","121.55","37.2"
"Santa Cruz","Santa Cruz","Santa Cruz","US","CA","44","1","Santa Cruz/Watsonville","94","12",,"40.91688648611","5.22343231737575",,"244","229734.0","84219.0",,"431.0","1","0","0","1","0","0","122.03","36.58"
"Shasta","Shasta","Redding","US","CA","45","1","Anderson/Redding","81","16",,"55.0885497429201","10.8816888381077",,"152","147036.0","59468.0",,"468.0","0","1","0","1","0","0","122.24","40.35"
"Sierra","Sierra","Downieville","US","CA","46","0",,"3","1",,"90.4159132007233","30.1386377335744",,,"3318.0","2247.0",,"468.0","0","0","0","0","0","0","120.49","39.34"
"Siskiyou","Siskiyou","Yreka","US","CA","47","1","Happy Camp","57","16",,"130.941168362776","36.7554156807792",,"46","43531.0","32885.0",,"443.0","0","1","0","1","0","0","122.65","41.73"
"Solano","Solano","Fairfield","US","CA","48","1",,"83","11",,"24.3815745797116","3.23129301658828",,"375","340421.0","134597.0",,"491.0","1","0","1","1","0","0","122.03","38.14"
"Sonoma","Sonoma","Santa Rosa","US","CA","49","1","Healdsburg","139","13",,"35.8042563275652","3.34859951264998",,"301","388222.0","147375.0",,"439.0","1","0","0","1","0","0","122.43","38.26"
"Stanislaus","Stanislaus","Modesto","US","CA","50","1",,"68","11",,"18.3524864920302","2.96878457959311",,"429","370522.0","157294.0",,"365.0","0","0","0","1","0","0","121.0","37.37"
"Sutter","Sutter","Yuba City","US","CA","51","0",,"11","0",,"17.0767678335791","0.0",,,"64415.0","33380.0",,"447.0","0","0","1","1","0","0","121.36","39.09"
"Tehama","Tehama","Red Bluff","US","CA","52","1","Corning/Red Bluff","65","9",,"130.982367758186","18.1360201511335",,"76","49625.0","25305.0",,"463.0","0","0","0","1","0","0","122.27","40.18"
"Trinity","Trinity","Weaverville","US","CA","53","0","Hayfork","9","4",,"68.8968843297864","30.6208374799051",,,"13063.0","9706.0",,"409.0","0","1","0","0","0","0","122.57","40.44"
"Tulare","Tulare","Visalia","US","CA","54","0",,"49","1",,"15.7091058312842","0.32059399655682",,,"311921.0","168403.0",,"331.0","0","0","0","1","0","0","119.18","36.2"
"Tuolumne","Tuolumne","Sonora","US","CA","55","1","Sonora","52","11",,"107.313851741786","22.701007099224",,"80","48456.0","14404.0",,"462.0","0","1","0","0","0","0","120.21","38.0"
"Ventura","Ventura","Ventura","US","CA","56","1","Simi Valley/Ventura","192","39",,"28.6988651990386","5.82945699355471",,"290","669016.0","199138.0",,"470.0","1","0","0","1","1","0","119.18","34.16"
"Yolo","Yolo","Woodland","US","CA","57","0",,"38","4",,"26.9327814475661","2.83502962605959",,,"141092.0","65727.0",,"470.0","0","0","1","1","0","0","121.5","38.4"
"Yuba","Yuba","Marysville","US","CA","58","0",,"19","3",,"32.6303496599574","5.15216047262485",,,"58228.0","33859.0",,"406.0","0","0","0","0","1","0","121.34","39.1"
"Adams","Adams","Brighton","US","CO","01","0",,"34","1",,"12.8283491423871","0.377304386540798",,,"265038.0","120296.0","1.2032","551.0","0","0","0","1","1","1","104.5","39.59"
"Alamosa","Alamosa","Alamosa","US","CO","02","1","Alamosa","120","41",,"881.251376955276","301.094220459719",,"5","13617.0","10000.0","0.3617","457.0","0","0","0","0","0","0","105.9","37.47"
"Arapahoe","Arapahoe","Littleton","US","CO","03","0",,"78","1",,"19.9228118750176","0.255420665064328",,,"391511.0","113426.0","2.4517","648.0","0","0","0","1","0","0","105.02","39.36"
"Archuleta","Archuleta","Pagosa Springs","US","CO","04","0","Pagosa Springs","5","1",,"93.5453695042095","18.7090739008419",,,"5345.0","2629.0","1.0331","316.0","0","0","0","0","0","0","107.01","37.16"
"Baca","Baca","Springfield","US","CO","05","0",,"1","0",,"21.9490781387182","0.0",,,"4556.0","6310.0","-0.278","330.0","0","0","0","0","0","0","102.36","37.26"
"Bent","Bent","Las Animas","US","CO","06","0",,"0","0",,"0.0","0.0",,,"5048.0","7419.0","-0.3196","404.0","0","1","1","0","0","0","103.14","38.03"
"Boulder","Boulder","Boulder","US","CO","07","1","Boulder/Longmont","111","12",,"49.2591162648277","5.32530986646786",,"207","225339.0","74254.0","2.0347","635.0","0","0","0","1","0","1","105.16","40.02"
"Chaffee","Chaffee","Salida","US","CO","08","0","Salida","18","0",,"141.911069063387","0.0",,,"12684.0","8298.0","0.5286","414.0","0","0","0","0","0","0","106.01","38.33"
"Cheyenne","Cheyenne","Cheyenne Wells","US","CO","09","0",,"1","0",,"41.7188151856487","0.0",,,"2397.0","2789.0","-0.1406","422.0","0","0","0","0","0","0","102.1","38.49"
"Clear Creek","Clear Creek","Georgetown","US","CO","10","0",,"5","1",,"65.6254101588135","13.1250820317627",,,"7619.0","2793.0","1.7279","572.0","0","0","0","1","0","0","105.7","39.7"
"Conejos","Conejos","Conejos","US","CO","11","0","Sanford","28","8",,"375.687642560043","107.339326445727",,,"7453.0","8428.0","-0.1157","293.0","0","0","1","0","0","0","105.88","37.25"
"Costilla","Costilla","San Luis","US","CO","12","1","Blanca Peak/Mesita","70","42",,"2194.35736677116","1316.6144200627",,"2","3190.0","4219.0","-0.2439","206.0","0","0","1","0","0","0","105.25","37.03"
"Crowley","Crowley","Ordway","US","CO","13","0",,"1","1",,"25.3421186011151","25.3421186011151",,,"3946.0","3978.0","-0.008","292.0","0","1","1","0","0","0","103.47","38.13"
"Custer","Custer","Westcliffe","US","CO","14","0","Westcliffe","14","3",,"726.895119418484","155.763239875389",,,"1926.0","1305.0","0.4759","293.0","0","0","0","0","0","0","105.28","38.08"
"Delta","Delta","Delta","US","CO","15","0","Cedaredge/Delta","8","0",,"38.1315538608198","0.0",,,"20980.0","15602.0","0.3447","387.0","0","0","0","0","0","0","108.04","38.42"
"Denver","Denver","Denver","US","CO","16","1","Denver","210","9",,"44.9092192211458","1.92468082376339",,"286","467610.0","493887.0","-0.0532","534.0","0","0","0","1","1","1","105.0","39.45"
"Dolores","Dolores","Dove Creek","US","CO","17","0",,"3","0",,"199.468085106383","0.0",,,"1504.0","2196.0","-0.3151","366.0","0","0","0","0","0","0","108.55","37.46"
"Douglas","Douglas","Castle Rock","US","CO","18","0","Daniels Park","31","4",,"51.3321521418754","6.62350350217748",,,"60391.0","4816.0","11.5397","503.0","0","0","0","1","0","0","104.53","39.23"
"Eagle","Eagle","Eagle","US","CO","19","1","Eagle","17","7",,"77.5264502006567","31.9226559649763",,"74","21928.0","4677.0","3.6885","407.0","0","0","1","1","0","0","106.5","39.39"
"Elbert","Elbert","Kiowa","US","CO","20","1","Kiowa","16","8",,"165.871863985072","82.9359319925358",,"22","9646.0","3708.0","1.6014","392.0","0","0","0","1","0","0","104.27","39.18"
"El Paso","El Paso","Colorado Springs","US","CO","21","1",,"113","9",,"28.4624723561386","2.26692257703759",,"374","397014.0","143742.0","1.762","611.0","0","0","0","1","1","1","104.5","38.5"
"Fremont","Fremont","Canon City","US","CO","22","0","Canon City/Texas Creek","19","3",,"58.8727419204908","9.29569609270908",,,"32273.0","20196.0","0.598","356.0","0","0","0","0","1","0","105.14","38.27"
"Garfield","Garfield","Glenwood Springs","US","CO","23","1","Carbondale/Rifle/Glenwood Spg","15","5",,"50.0433709214653","16.6811236404884",,"127","29974.0","12017.0","1.4943","452.0","0","0","1","1","0","1","107.21","39.33"
"Gilpin","Gilpin","Central City","US","CO","24","0",,"1","0",,"32.5732899022801","0.0",,,"3070.0","685.0","3.4818","629.0","0","0","0","0","0","0","105.31","39.48"
"Grand","Grand","Hot Sulphur Springs","US","CO","25","0",,"4","0",,"50.2134069796636","0.0",,,"7966.0","3557.0","1.2395","503.0","0","1","0","0","0","0","106.06","40.04"
"Gunnison","Gunnison","Gunnison","US","CO","26","0","Gunnison","13","0",,"126.545312956293","0.0",,,"10273.0","5477.0","0.8757","560.0","0","1","0","0","0","0","106.55","38.33"
"Hinsdale","Hinsdale","Lake City","US","CO","27","0",,"1","0",,"214.132762312634","0.0",,,"467.0","208.0","1.2452","797.0","0","1","0","0","0","0","107.19","38.02"
"Huerfano","Huerfano","Walsenburg","US","CO","28","1","La Veta/Walsenburg","57","25",,"948.577134298552","416.042602762523",,"3","6009.0","7867.0","-0.2362","239.0","0","0","0","1","0","0","105.17","37.55"
"Jackson","Jackson","Walden","US","CO","29","0",,"1","0",,"62.3052959501558","0.0",,,"1605.0","1758.0","-0.087","475.0","0","0","0","0","0","0","106.19","40.43"
"Jefferson","Jefferson","Golden","US","CO","30","1",,"84","11",,"19.1592728599776","2.50895239833041",,"441","438430.0","127520.0","2.4381","660.0","0","0","0","1","1","1","105.15","39.45"
"Kiowa","Kiowa","Eads","US","CO","31","0",,"0","0",,"0.0","0.0",,,"1688.0","2425.0","-0.3039","459.0","0","0","0","0","0","0","102.48","38.28"
"Kit Carson","Kit Carson","Burlington","US","CO","32","0",,"2","1",,"28.0112044817927","14.0056022408964",,,"7140.0","6957.0","0.0263","410.0","0","0","0","1","0","0","102.17","39.17"
"Lake","Lake","Leadville","US","CO","33","0",,"2","1",,"33.2944897619444","16.6472448809722",,,"6007.0","7101.0","-0.1541","442.0","0","1","0","0","0","0","106.18","39.14"
"La Plata","La Plata","Durango","US","CO","34","0","Durango","22","2",,"68.1452112501549","6.19501920455953",,,"32284.0","18225.0","0.7714","527.0","0","0","0","0","0","0","107.53","37.16"
"Larimer","Larimer","Fort Collins","US","CO","35","1",,"70","5",,"37.6069110757726","2.68620793398375",,"306","186136.0","53343.0","2.4894","528.0","0","0","0","1","0","0","105.05","40.35"
"Las Animas","Las Animas","Trinidad","US","CO","36","1","Trinidad","25","7",,"181.620050853614","50.853614239012",,"34","13765.0","19983.0","-0.3112","321.0","0","0","0","1","0","0","104.31","37.11"
"Lincoln","Lincoln","Hugo","US","CO","37","0",,"1","0",,"22.0799293442261","0.0",,,"4529.0","5310.0","-0.1471","456.0","0","0","0","1","0","0","103.27","39.07"
"Logan","Logan","Sterling","US","CO","38","1","Sterling","14","9",,"79.6948824500484","51.232424432174",,"44","17567.0","20302.0","-0.1347","487.0","0","0","1","1","0","0","103.22","40.62"
"Mesa","Mesa","Grand Junction","US","CO","39","0",,"22","3",,"23.6190885179022","3.22078479789575",,,"93145.0","50715.0","0.8366","500.0","0","0","1","1","0","0","108.33","39.04"
"Mineral","Mineral","Creede","US","CO","40","0",,"1","0",,"179.21146953405","0.0",,,"558.0","424.0","0.316","454.0","0","0","0","0","0","0","106.56","37.52"
"Moffat","Moffat","Craig","US","CO","41","0",,"2","0",,"17.6102844060932","0.0",,,"11357.0","7061.0","0.6084","505.0","0","0","1","0","0","0","107.33","40.3"
"Montezuma","Montezuma","Cortez","US","CO","42","0","Cortez","16","3",,"85.6898029134533","16.0668380462725",,,"18672.0","14024.0","0.3314","412.0","0","1","0","0","0","0","108.36","37.22"
"Montrose","Montrose","Montrose","US","CO","43","0","Montrose","12","2",,"49.1340130205134","8.18900217008557",,,"24423.0","18286.0","0.3356","391.0","0","0","0","0","0","0","107.53","38.29"
"Morgan","Morgan","Fort Morgan","US","CO","44","0",,"3","0",,"13.6742786817995","0.0",,,"21939.0","21192.0","0.0352","422.0","0","0","1","1","0","0","103.48","40.14"
"Otero","Otero","La Junta","US","CO","45","0",,"6","1",,"29.7250433490216","4.95417389150359",,,"20185.0","24128.0","-0.1634","410.0","0","1","1","0","0","0","103.34","37.59"
"Ouray","Ouray","Ouray","US","CO","46","0",,"2","1",,"87.1459694989107","43.5729847494553",,,"2295.0","1601.0","0.4335","464.0","0","0","0","0","0","0","107.4","38.02"
"Park","Park","Fairplay","US","CO","47","0","Fairplay/Woodland Park","26","3",,"362.41984945637","41.8176749372735",,,"7174.0","1822.0","2.9374","514.0","0","1","0","0","0","0","106.0","39.13"
"Pitkin","Pitkin","Aspen","US","CO","49","0","Aspen","9","1",,"71.0844325092805","7.89827027880894",,,"12661.0","2381.0","4.3175","705.0","0","1","0","0","0","0","106.49","39.12"
"Prowers","Prowers","Lamar","US","CO","50","0",,"1","0",,"7.49232037161909","0.0",,,"13347.0","13296.0","0.0038","413.0","0","0","1","0","0","0","102.37","38.04"
"Pueblo","Pueblo","Pueblo","US","CO","51","0","Pueblo","50","2",,"40.6335584432471","1.62534233772988",,,"123051.0","118707.0","0.0366","384.0","0","0","0","1","1","0","104.38","38.17"
"Rio Blanco","Rio Blanco","Meeker","US","CO","52","0","Rangely","6","0",,"100.468854655057","0.0",,,"5972.0","5150.0","0.1596","532.0","0","0","0","0","0","1","107.56","40.03"
"Rio Grande","Rio Grande","Del Norte","US","CO","53","1","Monte Vista","66","11",,"612.813370473538","102.13556174559",,"8","10770.0","11160.0","-0.0349","430.0","0","0","0","0","0","0","106.13","37.57"
"Routt","Routt","Steamboat Springs","US","CO","54","0",,"5","1",,"35.4911981828507","7.09823963657013",,,"14088.0","5900.0","1.3878","468.0","0","0","0","0","0","0","106.51","40.28"
"Saguache","Saguache","Saguache","US","CO","55","1","Crestone/Moffat","265","42",,"5737.1725481706","909.287724615718",,"1","4619.0","4473.0","0.0326","348.0","0","0","0","0","0","0","105.68","37.98"
"San Juan","San Juan","Silverton","US","CO","56","0",,"2","0",,"268.456375838926","0.0",,,"745.0","849.0","-0.1225","461.0","0","0","0","0","0","0","107.4","37.48"
"San Miguel","San Miguel","Telluride","US","CO","57","0","Dry Creek Basin","6","2",,"164.248562825075","54.7495209416918",,,"3653.0","2944.0","0.2408","403.0","0","0","0","0","0","0","107.48","37.57"
"Sedgwick","Sedgwick","Sedgwick","US","CO","58","0",,"2","2",,"74.3494423791822","74.3494423791822",,,"2690.0","4242.0","-0.3659","460.0","0","0","1","1","0","0","102.33","40.56"
"Summit","Summit","Breckenridge","US","CO","59","0",,"5","3",,"38.8168620448723","23.2901172269234",,,"12881.0","2073.0","5.2137","433.0","0","1","0","1","0","0","106.03","39.29"
"Teller","Teller","Cripple Creek","US","CO","60","0",,"6","0",,"48.1231953801732","0.0",,,"12468.0","2495.0","3.9972","459.0","0","0","0","0","0","0","105.11","38.44"
"Washington","Washington","Akron","US","CO","61","0",,"4","3",,"83.1255195344971","62.3441396508728",,,"4812.0","6625.0","-0.2737","375.0","0","0","0","1","0","0","103.13","40.09"
"Weld","Weld","Greeley","US","CO","62","0",,"26","0",,"19.7237162515836","0.0",,,"131821.0","72344.0","0.8221","434.0","0","1","1","1","0","1","104.43","40.26"
"Yuma","Yuma","Wray","US","CO","63","0",,"4","1",,"44.6727719454992","11.1681929863748",,,"8954.0","8912.0","0.0047","380.0","0","0","0","0","0","0","102.14","40.05"
"Fairfield","Fairfield","Bridgeport","US","CT","01","1","Danbury","197","37","42","23.8024756991222","4.47051574044427",,"342","827645.0","653589.0","0.2663","475.0","1","0","0","1","0","0","73.12","41.12"
"Hartford","Hartford","Hartford","US","CT","02","1","Hartford","154","17","43","18.0797221827625","1.99581348770755",,"462","851783.0","689555.0","0.2353","442.0","0","1","1","1","0","0","72.42","41.45"
"Litchfield","Litchfield","Litchfield","US","CT","03","1","Winsted/Torrington","117","23","25","67.2058451853043","13.2114054637778",,"123","174092.0","119856.0","0.4525","422.0","0","1","0","0","0","0","73.11","41.45"
"Middlesex","Middlesex","Middletown","US","CT","04","1","Cromwell/Old Saybrook","38","11","7","26.5370541076566","7.68177882063745",,"264","143196.0","88865.0","0.6114","426.0","1","1","1","1","0","1","72.39","41.34"
"New Haven","New Haven","New Haven","US","CT","05","1","New Haven","172","30","59","21.3872092054527","3.73032718699757",,"386","804219.0","660315.0","0.2179","423.0","1","0","0","1","0","1","72.55","41.18"
"New London","New London","Norwich","US","CT","06","0",,"48","4","14","18.8267041108893","1.56889200924077",,,"254957.0","185745.0","0.3726","412.0","1","1","1","1","1","1","72.05","41.32"
"Tolland","Tolland","Rockville","US","CT","07","0",,"22","2","1","17.0941499156948","1.55401362869952",,,"128699.0","68737.0","0.8723","427.0","0","1","0","1","0","0","72.27","41.53"
"Windham","Windham","Putnam","US","CT","08","1","Woodstock/Plainfield","33","5","5","32.1872713972202","4.87685930260912",,"292","102525.0","68572.0","0.4951","307.0","0","0","0","1","0","0","71.54","41.55"
"Dist Columbi","District of Columbia","Washington","US","DC","01","1","Washington","154","15",,"25.2496683931537","2.45938328504744",,"395","609909.0","763956.0","-0.2016","478.0","0","0","1","1","1","0","77.0","38.55"
"Kent","Kent","Dover","US","DE","01","0",,"18","1",,"16.2172389249773","0.900957718054292",,,"110993.0","65651.0","0.6907","400.0","1","0","0","0","1","0","75.32","39.1"
"New Castle","New Castle","Wilmington","US","DE","02","1",,"73","7",,"16.5178551225715","1.58390391586302",,"484","441946.0","307446.0","0.4375","464.0","1","0","0","1","0","0","75.31","39.46"
"Sussex","Sussex","Georgetown","US","DE","03","1","Milford","29","6",,"25.6118132280599","5.29899584028827",,"315","113229.0","73195.0","0.5469","333.0","1","0","1","0","0","0","75.05","38.43"
"Alachua","Alachua","Gainesville","US","FL","01","1",,"32","8",,"17.6215335139541","4.40538337848851",,"393","181596.0","74074.0","1.4515","475.0","0","1","0","1","0","0","82.21","29.37"
"Baker","Baker","MacClenny","US","FL","02","0",,"0","0",,"0.0","0.0",,,"18486.0","7363.0","1.5107","205.0","0","0","0","1","0","0","82.07","30.16"
"Bay","Bay","Panama City","US","FL","03","0",,"29","0",,"22.8357245224184","0.0",,,"126994.0","67131.0","0.8917","439.0","1","0","0","0","0","0","85.41","30.1"
"Bradford","Bradford","Starke","US","FL","04","0",,"0","0",,"0.0","0.0",,,"22515.0","12446.0","0.809","268.0","0","0","0","0","0","0","82.06","29.55"
"Brevard","Brevard","Titutsville","US","FL","05","1",,"75","11",,"18.798028964003","2.75704424805378",,"433","398978.0","111435.0","2.5804","543.0","1","1","0","1","1","0","80.5","28.37"
"Broward","Broward","Fort Lauderdale","US","FL","06","1",,"124","18",,"9.87663761023602","1.43370545955039",,"533","1255488.0","333946.0","2.7596","496.0","1","0","0","1","0","0","80.08","26.08"
"Calhoun","Calhoun","Blountstown","US","FL","07","0",,"0","0",,"0.0","0.0",,,"11011.0","7422.0","0.4836","204.0","0","0","1","0","0","0","85.03","30.27"
"Charlotte","Charlotte","Punta Gorda","US","FL","08","1",,"23","6",,"20.7253886010363","5.40662311331381",,"340","110975.0","12594.0","7.8117","412.0","1","0","0","1","0","0","82.01","26.56"
"Citrus","Citrus","Inverness","US","FL","09","0",,"5","2",,"5.34673581778324","2.1386943271133",,,"93515.0","9268.0","9.0901","322.0","1","1","0","0","0","1","82.21","28.51"
"Clay","Clay","Green Cove Springs","US","FL","10","0",,"6","1",,"5.66112505425245","0.943520842375408",,,"105986.0","19535.0","4.4254","374.0","0","0","1","0","0","0","81.42","29.0"
"Collier","Collier","Naples","US","FL","11","0",,"18","2",,"11.8343973333158","1.31493303703509",,,"152099.0","15753.0","8.6552","415.0","1","0","0","1","0","0","81.48","26.09"
"Columbia","Columbia","Lake City","US","FL","12","0",,"4","2",,"9.38680684298219","4.69340342149109",,,"42613.0","20077.0","1.1225","301.0","0","0","0","1","0","0","82.39","30.12"
"Dade","Dade","Miami","US","FL","13","1","Miami","281","77",,"14.5062655710048","4.0",,"424","1937094.0","935047.0","1.0717","466.0","1","0","0","1","1","1","80.15","25.45"
"De Soto","De Soto","Arcadia","US","FL","14","0",,"2","1",,"8.38047349675257","4.19023674837628",,,"23865.0","11683.0","1.0427","265.0","1","0","0","0","0","0","81.52","27.12"
"Dixie","Dixie","Cross City","US","FL","15","0",,"2","0",,"18.8946622579121","0.0",,,"10585.0","4479.0","1.3633","212.0","1","0","1","0","0","0","83.09","29.39"
"Duval","Duval","Jacksonville","US","FL","16","1",,"95","21",,"14.116507249198","3.1204910761385",,"457","672971.0","455411.0","0.4777","414.0","1","0","1","1","1","1","81.4","30.2"
"Escambia","Escambia","Pensacola","US","FL","17","1","Pensacola","125","30",,"47.5650499623285","11.4156119909588",,"156","262798.0","173829.0","0.5118","404.0","1","0","0","1","1","0","87.12","30.26"
"Flagler","Flagler","Bunnell","US","FL","18","0",,"5","1",,"17.420995784119","3.4841991568238",,,"28701.0","173829.0","-0.8349","404.0","1","1","0","1","0","0","81.16","29.28"
"Franklin","Franklin","Apalachicola","US","FL","19","0",,"6","1",,"66.9120107059217","11.1520017843203",,,"8967.0","6576.0","0.3636","275.0","1","0","1","0","0","0","85.01","29.43"
"Gadsden","Gadsden","Quincy","US","FL","20","0",,"2","1",,"4.86558812796497","2.43279406398248",,,"41105.0","41989.0","-0.0211","219.0","0","1","1","1","0","0","84.35","30.34"
"Gilchrist","Gilchrist","Trenton","US","FL","21","0",,"0","0",,"0.0","0.0",,,"9667.0","2868.0","2.3706","229.0","1","0","0","0","0","0","82.5","29.37"
"Glades","Glades","Moore Haven","US","FL","22","0",,"1","1",,"13.1734949282045","13.1734949282045",,,"7591.0","2950.0","1.5732","157.0","0","1","0","0","0","0","81.08","26.5"
"Gulf","Gulf","Wewahitchka","US","FL","23","0",,"3","1",,"26.0778859527121","8.69262865090403",,,"11504.0","9937.0","0.1577","328.0","1","0","1","0","0","0","85.12","30.06"
"Hamilton","Hamilton","Jasper","US","FL","24","0",,"0","0",,"0.0","0.0",,,"10930.0","7705.0","0.4186","225.0","0","0","0","1","0","0","82.58","30.31"
"Hardee","Hardee","Wauchula","US","FL","25","0",,"1","1",,"5.12846812657059","5.12846812657059",,,"19499.0","12370.0","0.5763","272.0","0","0","0","0","0","0","81.49","27.33"
"Hendry","Hendry","La Belle","US","FL","26","1","Fort Myers/Everglades","10","7",,"38.8002948822411","27.1602064175688",,"104","25773.0","8119.0","2.1744","285.0","0","1","1","0","0","0","81.5","26.7"
"Hernando","Hernando","Brooksville","US","FL","27","1","Brooksville","40","21",,"39.558918063591","20.7684319833853",,"119","101115.0","11205.0","8.0241","297.0","1","0","0","1","0","0","82.24","28.34"
"Highlands","Highlands","Sebring","US","FL","28","0",,"20","1",,"29.2260930558803","1.46130465279401",,,"68432.0","21338.0","2.207","334.0","0","1","0","0","0","0","81.28","27.3"
"Hillsborough","Hillsborough","Tampa","US","FL","29","1","Tampa","91","9",,"10.9105645437825","1.07906682301146",,"536","834054.0","397788.0","1.0967","366.0","1","0","0","1","1","1","82.38","27.58"
"Holmes","Holmes","Bonifay","US","FL","30","0",,"2","0",,"12.675877804538","0.0",,,"15778.0","10844.0","0.455","169.0","0","0","0","0","0","0","85.42","30.49"
"Indian River","Indian River","Vero Beach","US","FL","31","0",,"24","3",,"26.6051791415396","3.32564739269244",,,"90208.0","25309.0","2.5643","430.0","1","1","0","1","0","0","80.24","27.39"
"Jackson","Jackson","Marianna","US","FL","32","0",,"3","1",,"7.25075528700906","2.41691842900302",,,"41375.0","36208.0","0.1427","263.0","0","1","1","1","0","0","85.15","30.45"
"Jefferson","Jefferson","Monticello","US","FL","33","0",,"2","0",,"17.7053824362606","0.0",,,"11296.0","9543.0","0.1837","261.0","0","1","0","1","0","0","83.54","30.34"
"Lafayette","Lafayette","Mayo","US","FL","34","0",,"0","0",,"0.0","0.0",,,"5578.0","2889.0","0.9308","237.0","0","0","1","0","0","0","83.11","30.03"
"Lake","Lake","Tavares","US","FL","35","1",,"22","6",,"14.4637879345711","3.9446694367012",,"428","152104.0","57383.0","1.6507","388.0","0","1","0","1","0","0","81.45","28.49"
"Lee","Lee","Fort Myers","US","FL","36","1",,"56","10",,"16.7107811394962","3.0",,"446","335113.0","54539.0","5.1445","424.0","1","0","1","1","0","0","81.51","26.39"
"Leon","Leon","Tallahassee","US","FL","37","0",,"26","2",,"13.5069846695724","1.03899882073634",,,"192493.0","74225.0","1.5934","494.0","0","1","1","1","0","0","84.19","30.26"
"Levy","Levy","Bronson","US","FL","38","1","Williston","12","7",,"46.2909385487791","27.0030474867878",,"99","25923.0","10364.0","1.5013","241.0","1","0","1","0","0","0","82.39","29.26"
"Liberty","Liberty","Bristol","US","FL","39","0",,"0","0",,"0.0","0.0",,,"5569.0","3138.0","0.7747","233.0","0","0","1","0","0","0","84.58","30.27"
"Madison","Madison","Madison","US","FL","40","0",,"4","0",,"24.1414690083892","0.0",,,"16569.0","14154.0","0.1706","230.0","1","0","0","1","0","0","83.39","30.29"
"Manatee","Manatee","Bradenton","US","FL","41","0",,"31","4",,"14.6428790734364","1.88940375141115",,,"211707.0","69168.0","2.0608","376.0","1","0","0","1","0","0","82.33","27.29"
"Marion","Marion","Ocala","US","FL","42","1",,"26","5",,"13.3447619243147","2.56630037006051",,"475","194833.0","51616.0","2.7747","336.0","0","1","0","1","0","0","82.09","29.11"
"Martin","Martin","Stuart","US","FL","43","0",,"10","2",,"9.91080277502478","1.98216055500496",,,"100900.0","16932.0","4.9591","403.0","1","1","0","1","0","0","80.16","27.12"
"Monroe","Monroe","Key West","US","FL","44","1","Key West","50","6",,"64.0828463037014","7.68994155644417",,"155","78024.0","47921.0","0.6282","424.0","1","0","0","0","1","0","81.38","24.34"
"Nassau","Nassau","Fenrandina Beach","US","FL","45","0",,"9","3",,"20.4820099679115","6.82733665597051",,,"43941.0","17189.0","1.5563","284.0","1","0","0","1","0","0","81.26","30.3"
"Okaloosa","Okaloosa","Crestview","US","FL","46","1","Fort Walton Beach","39","6",,"27.1255286000445","4.17315824616069",,"327","143776.0","61175.0","1.3502","544.0","1","0","0","1","1","1","86.34","30.44"
"Okeechobee","Okeechobee","Okeechobee","US","FL","47","0",,"3","0",,"10.1258986735073","0.0",,,"29627.0","6424.0","3.6119","272.0","0","1","1","1","0","0","80.5","27.14"
"Orange","Orange","Orlando","US","FL","48","1",,"82","12",,"12.1034818174706","1.77124124158107",,"510","677491.0","263540.0","1.5707","488.0","1","1","0","1","1","0","81.21","28.33"
"Osceola","Osceola","Kissimmee","US","FL","49","1","Kissimmee","23","6",,"21.3500668349918","5.56958265260656",,"328","107728.0","19029.0","4.6613","326.0","0","1","0","1","0","0","81.24","28.2"
"Palm Beach","Palm Beach","West Palm Beach","US","FL","50","1",,"128","12",,"14.8230841742731","1.38966414133811",,"500","863518.0","228106.0","2.7856","458.0","1","1","0","1","0","0","80.05","26.42"
"Pasco","Pasco","Dade City","US","FL","51","0",,"37","4",,"13.161124173428","1.42282423496519",,,"281131.0","36785.0","6.6425","278.0","1","0","0","1","0","0","82.11","28.23"
"Pinellas","Pinellas","Clearwater","US","FL","52","1",,"87","7",,"10.2153561460632","0.821925207154507",,"541","851659.0","374665.0","1.2731","439.0","1","0","0","1","0","0","82.48","27.57"
"Polk","Polk","Barton","US","FL","53","1",,"68","16",,"16.7743017696888","3.94689453404443",,"410","405382.0","195139.0","1.0774","352.0","0","1","0","1","0","0","81.52","27.54"
"Putnam","Putnam","Palatka","US","FL","54","0",,"16","2",,"24.588904256954","3.07361303211926",,,"65070.0","32212.0","1.0201","336.0","0","1","1","0","0","0","81.4","29.38"
"St Johns","St Johns","St Augustine","US","FL","55","1",,"27","5",,"9.72006220839813","1.80001152007373",,"522","277776.0","30034.0","8.2487","403.0","1","0","1","1","0","0","81.19","29.54"
"St Lucie","St Lucie","Fort Pierce","US","FL","56","0",,"26","4",,"9.04256614115446","1.39116402171607",,,"287529.0","39294.0","6.3174","369.0","1","0","0","1","0","1","80.2","27.28"
"Santa Rosa","Santa Rosa","Milton","US","FL","57","1","Gulf Breeze","254","50",,"302.997769268392","59.6452301709432",,"19","83829.0","29547.0","1.8371","376.0","1","0","0","1","1","1","87.17","30.36"
"Sarasota","Sarasota","Sarasota","US","FL","58","1","Venice","61","8",,"40.6203594568858","5.32726025664076",,"243","150171.0","76895.0","0.9529","476.0","1","0","0","1","0","0","82.32","27.2"
"Seminole","Seminole","Sanford","US","FL","59","0",,"28","1",,"34.3103617292422","1.22537006175865",,,"81608.0","54947.0","0.4852","436.0","0","1","0","1","0","0","81.18","28.49"
"Sumter","Sumter","Bushnell","US","FL","60","0",,"0","0",,"0.0","0.0",,,"31577.0","11869.0","1.6605","274.0","0","1","0","1","0","0","82.08","28.41"
"Suwannee","Suwannee","Live Oak","US","FL","61","0","Live Oak","9","4",,"33.6071695294996","14.9365197908887",,,"26780.0","14961.0","0.79","236.0","0","0","1","1","0","0","82.59","30.19"
"Taylor","Taylor","Perry","US","FL","62","0",,"1","0",,"5.84419379346619","0.0",,,"17111.0","13168.0","0.2994","258.0","1","1","0","0","0","0","83.36","30.08"
"Union","Union","Lake Butler","US","FL","63","0",,"0","0",,"0.0","0.0",,,"10252.0","6043.0","0.6965","199.0","0","0","0","0","0","0","82.21","30.01"
"Volusia","Volusia","De Land","US","FL","64","1",,"68","14",,"18.3430803426919","3.77651654114245",,"405","370712.0","125319.0","1.9581","469.0","1","1","0","1","0","0","81.18","29.02"
"Wakulla","Wakulla","Crawfordville","US","FL","65","0",,"5","0",,"35.2063089705675","0.0",,,"14202.0","5257.0","1.7015","217.0","1","0","1","0","0","0","84.21","30.12"
"Walton","Walton","De Funiak Springs","US","FL","66","0",,"7","2",,"25.2161383285303","7.20461095100865",,,"27760.0","15576.0","0.7822","243.0","1","0","0","1","1","1","86.08","30.41"
"Washington","Washington","Chipley","US","FL","67","0",,"1","0",,"5.91051480583959","0.0",,,"16919.0","11249.0","0.504","219.0","1","0","0","1","0","0","85.32","30.48"
"Appling","Appling","Baxley","US","GA","1A","0",,"2","0",,"12.7032520325203","0.0",,,"15744.0","13246.0","0.1886","192.0","0","0","1","0","0","1","82.22","31.46"
"Atkinson","Atkinson","Pearson","US","GA","1B","0",,"1","1",,"16.095284081764","16.095284081764",,,"6213.0","6188.0","0.004","168.0","0","0","0","0","0","0","82.54","31.16"
"Bacon","Bacon","Alma","US","GA","1C","0",,"0","0",,"0.0","0.0",,,"9566.0","6188.0","0.5459","217.0","0","0","0","0","0","0","82.54","31.16"
"Baker","Baker","Newton","US","GA","1D","0",,"1","1",,"27.6625172890733","27.6625172890733",,,"3615.0","4543.0","-0.2043","154.0","0","0","1","0","0","0","84.4","31.3"
"Baldwin","Baldwin","Milledgeville","US","GA","1E","0",,"6","0",,"15.1783455603339","0.0",,,"39530.0","34064.0","0.1605","200.0","0","1","0","0","0","0","83.13","33.04"
"Banks","Banks","Homer","US","GA","1F","0",,"1","0",,"9.7012029491657","0.0",,,"10308.0","6497.0","0.5866","165.0","0","0","0","1","0","0","83.5","34.3"
"Barrow","Barrow","Winder","US","GA","1G","0",,"1","0",,"3.36462433969247","0.0",,,"29721.0","14485.0","1.0518","218.0","0","1","0","1","0","0","83.43","33.59"
"Bartow","Bartow","Cartersville","US","GA","1H","0",,"3","0",,"5.36567044052154","0.0",,,"55911.0","28267.0","0.978","191.0","0",,,,,"0","84.49","34.09"
"Ben Hill","Ben Hill","Fitzgerald","US","GA","1I","0",,"3","0",,"18.4672206832872","0.0",,,"16245.0","13653.0","0.1898","246.0","0","0","1","0","0","0","83.16","31.43"
"Berrien","Berrien","Nashville","US","GA","1J","0",,"1","0",,"7.06563979368332","0.0",,,"14153.0","12038.0","0.1757","211.0","0","0","0","0","0","0","83.16","31.03"
"Bibb","Bibb","Macon","US","GA","1K","0",,"21","2",,"14.0030806777491","1.3336267312142",,,"149967.0","141249.0","0.0617","348.0","0","0","0","1","0","0","83.37","32.49"
"Bleckley","Bleckley","Cochran","US","GA","1L","0",,"0","0",,"0.0","0.0",,,"10430.0","9642.0","0.0817","202.0","0",,,,,"0","83.21","32.22"
"Brantley","Brantley","Nahunta","US","GA","1M","0",,"3","0",,"27.0831452559357","0.0",,,"11077.0","5891.0","0.8803","213.0","0","0","0","0","0","0","82.0","31.12"
"Brooks","Brooks","Quitman","US","GA","1N","0",,"1","0",,"6.49434991557345","0.0",,,"15398.0","15290.0","0.0071","228.0","0","0","0","0","0","0","83.34","30.57"
"Bryan","Bryan","Pembroke","US","GA","1O","0",,"0","0",,"0.0","0.0",,,"15438.0","6226.0","1.4796","205.0","1","0","1","1","1","0","81.39","32.09"
"Bulloch","Bulloch","Statesboro","US","GA","1P","0",,"2","0",,"4.63768115942029","0.0",,,"43125.0","24263.0","0.7774","279.0","0","0","1","1","0","0","81.47","32.28"
"Burke","Burke","Waynesboro","US","GA","1Q","0",,"1","0",,"4.85932261042811","0.0",,,"20579.0","20596.0","-0.0008","168.0","0","0","1","0","0","1","82.01","33.04"
"Butts","Butts","Jackson","US","GA","1R","0",,"1","0",,"6.52485971551612","0.0",,,"15326.0","8976.0","0.7074","257.0","0","0","0","0","0","0","84.0","33.17"
"Calhoun","Calhoun","Morgan","US","GA","1S","0","Edison/Leary","6","4",,"119.688809096349","79.7925393975663",,,"5013.0","7341.0","-0.3171","212.0","0","0","0","0","0","0","84.44","31.55"
"Camden","Camden","Woodbine","US","GA","1T","0",,"2","0",,"6.62976099711605","0.0",,,"30167.0","9975.0","2.0243","271.0","1","0","1","1","1","0","81.46","30.57"
"Candler","Candler","Metter","US","GA","1U","0",,"1","0",,"12.9132231404959","0.0",,,"7744.0","6672.0","0.1607","240.0","0","0","0","1","0","0","82.06","32.24"
"Carroll","Carroll","Carrollton","US","GA","1V","0",,"2","0",,"2.80025762370138","0.0",,,"71422.0","36451.0","0.9594","209.0","0","0","0","1","0","0","85.06","33.34"
"Catoosa","Catoosa","Ringgold","US","GA","1W","0",,"5","1",,"11.7746797287114","2.35493594574228",,,"42464.0","21101.0","1.0124","281.0","0","0","0","1","0","0","85.1","34.9"
"Charlton","Charlton","Folkston","US","GA","1X","0",,"1","1",,"11.7702448210923","11.7702448210923",,,"8496.0","5313.0","0.5991","208.0","0","0","1","0","0","0","82.02","30.49"
"Chatham","Chatham","Savannah","US","GA","1Y","1",,"57","8",,"26.2751515430889","3.68774056745108",,"347","216935.0","188299.0","0.1521","390.0","1","0","1","1","1","0","81.07","32.04"
"Chattahoochee","Chattahoochee","Cusseta","US","GA","1Z","0","Fort Benning","10","1",,"59.0527931971182","5.90527931971182",,,"16934.0","13011.0","0.3015","574.0","0","0","1","0","1","0","84.48","32.17"
"Chattooga","Chattooga","Summerville","US","GA","2A","0",,"0","0",,"0.0","0.0",,,"22242.0","19954.0","0.1147","219.0","0","0","0","0","0","0","85.21","34.29"
"Cherokee","Cherokee","Canton","US","GA","2B","0",,"4","0",,"4.43439315329697","0.0",,,"90204.0","23001.0","2.9217","167.0","0","1","0","0","0","0","84.29","34.13"
"Clarke","Clarke","Athens","US","GA","2C","1",,"11","5",,"12.5579377582939","5.70815352649725",,"391","87594.0","45363.0","0.931","440.0","0","0","0","0","1","0","83.24","33.57"
"Clay","Clay","Fort Gaines","US","GA","2D","0",,"0","0",,"0.0","0.0",,,"3364.0","4551.0","-0.2608","240.0","0","0","1","0","0","0","85.04","31.37"
"Clayton","Clayton","Jonesboro","US","GA","2E","0",,"4","0",,"2.19717443367829","0.0",,,"182052.0","16365.0","10.1245","377.0","0","0","0","1","0","0","84.22","33.32"
"Clinch","Clinch","Homerville","US","GA","2F","0",,"1","0",,"16.2337662337662","0.0",,,"6160.0","6545.0","-0.0588","185.0","0","0","1","0","0","0","82.44","31.02"
"Cobb","Cobb","Marietta","US","GA","2G","0",,"37","1",,"8.26363220136462","0.223341410847692",,,"447745.0","114174.0","2.9216","419.0","0","0","0","1","1","0","84.34","33.57"
"Coffee","Coffee","Douglas","US","GA","2H","0",,"10","1",,"33.7929170045958","3.37929170045958",,,"29592.0","21953.0","0.348","248.0","0","0","1","0","0","0","82.54","31.3"
"Colquitt","Colquitt","Moultrie","US","GA","2I","0",,"5","1",,"13.6444262518761","2.72888525037522",,,"36645.0","34048.0","0.0763","246.0","0","0","0","0","0","0","83.47","31.11"
"Columbia","Columbia","Appling","US","GA","2J","0",,"1","0",,"1.51444018718481","0.0",,,"66031.0","13423.0","3.9192","288.0","0","1","0","1","0","0","82.3","33.5"
"Cook","Cook","Adel","US","GA","2K","0",,"2","1",,"14.8632580261593","7.43162901307967",,,"13456.0","11822.0","0.1382","196.0","0","0","0","1","0","0","83.27","31.07"
"Coweta","Coweta","Newnan","US","GA","2L","0",,"9","1",,"16.7121608824021","1.85690676471134",,,"53853.0","28893.0","0.8639","253.0","0","0","0","1","0","0","84.48","33.23"
"Crawford","Crawford","Knoxville","US","GA","2M","0",,"0","0",,"0.0","0.0",,,"8991.0","5816.0","0.5459","159.0","0","0","0","0","0","0","83.9","32.7"
"Crisp","Crisp","Cordele","US","GA","2N","0",,"2","0",,"9.99450302333716","0.0",,,"20011.0","17768.0","0.1262","250.0","0","1","0","1","0","0","83.49","31.59"
"Dade","Dade","Trenton","US","GA","20","0",,"0","0",,"0.0","0.0",,,"13147.0","8666.0","0.5171","183.0","0","0","0","1","0","0","85.5","34.9"
"Dawson","Dawson","Dawsonville","US","GA","2P","0",,"0","0",,"0.0","0.0",,,"9429.0","3590.0","1.6265","145.0","0","0","0","1","0","0","84.08","34.24"
"Decatur","Decatur","Bainbridge","US","GA","2Q","0",,"1","0",,"3.91987769981577","0.0",,,"25511.0","25203.0","0.0122","262.0","0","0","1","0","0","0","84.33","30.54"
"De Kalb","De Kalb","Decatur","US","GA","2R","0",,"29","4",,"5.31294140924855","0.732819504723938",,,"545837.0","256782.0","1.1257","566.0","0","0","0","1","0","0","84.17","33.45"
"Dodge","Dodge","Eastman","US","GA","2S","0",,"0","0",,"0.0","0.0",,,"17607.0","16483.0","0.0682","186.0","0","0","1","0","0","0","83.11","32.11"
"Dooly","Dooly","Vienna","US","GA","2T","0",,"1","0",,"10.0999899000101","0.0",,,"9901.0","11474.0","-0.1371","222.0","0","0","0","1","0","0","83.49","32.05"
"Dougherty","Dougherty","Albany","US","GA","2U","1","Albany","18","6",,"18.6894539564536","6.22981798548452",,"329","96311.0","75680.0","0.2726","401.0","0","0","1","0","1","0","84.1","31.37"
"Douglas","Douglas","Douglasville","US","GA","2V","0",,"10","2",,"14.0607424071991","2.81214848143982",,,"71120.0","16741.0","3.2483","179.0","0","0","0","1","0","0","84.45","33.44"
"Early","Early","Blakely","US","GA","2W","0",,"0","0",,"0.0","0.0",,,"11854.0","13151.0","-0.0986","212.0","0","0","1","0","0","0","84.58","31.22"
"Echols","Echols","Statenville","US","GA","2X","0",,"0","0",,"0.0","0.0",,,"2334.0","1876.0","0.2441","110.0","0","0","1","0","0","0","83.0","30.7"
"Effingham","Effingham","Springfield","US","GA","2Y","0",,"7","4",,"27.251138708296","15.5720792618834",,,"25687.0","10144.0","1.5322","174.0","0","0","1","1","0","0","81.2","32.22"
"Elbert","Elbert","Elberton","US","GA","2Z","0",,"1","0",,"5.27732334160114","0.0",,,"18949.0","17835.0","0.0625","296.0","0","0","0","0","0","0","82.54","34.05"
"Emanuel","Emanuel","Swainsboro","US","GA","3A","0",,"0","0",,"0.0","0.0",,,"20546.0","17815.0","0.1533","198.0","0","0","0","1","0","0","82.21","32.36"
"Evans","Evans","Claxton","US","GA","3B","0",,"2","0",,"22.9252636405319","0.0",,,"8724.0","6952.0","0.2549","227.0","0","0","0","0","0","0","81.54","32.1"
"Fannin","Fannin","Blue Ridge","US","GA","3C","0",,"0","0",,"0.0","0.0",,,"15992.0","13620.0","0.1742","199.0","0","1","0","0","0","0","84.2","34.51"
"Fayette","Fayette","Fayetteville","US","GA","3D","0",,"6","5",,"9.61307378034126","8.01089481695105",,,"62415.0","8199.0","6.6125","201.0","0","0","0","0","0","0","84.28","33.26"
"Floyd","Floyd","Rome","US","GA","3E","0",,"13","0",,"15.9998030793467","0.0",,,"81251.0","69130.0","0.1753","288.0","0","1","0","0","0","0","85.02","34.01"
"Forsyth","Forsyth","Cumming","US","GA","3F","0",,"2","0",,"4.53689630923485","0.0",,,"44083.0","12170.0","2.6223","194.0","0","1","0","1","0","0","84.1","34.12"
"Franklin","Franklin","Carnesville","US","GA","3G","0",,"4","2",,"24.024024024024","12.012012012012",,,"16650.0","13274.0","0.2543","161.0","0","0","0","1","0","0","83.13","34.23"
"Fulton","Fulton","Atlanta","US","GA","3H","1",,"116","8",,"17.8750013483298","1.23275871367792",,"485","648951.0","556326.0","0.1665","412.0","0","0","0","1","1","0","84.23","33.45"
"Gilmer","Gilmer","Ellijay","US","GA","3I","0",,"0","0",,"0.0","0.0",,,"13368.0","8922.0","0.4983","143.0","0","1","0","0","0","0","84.29","34.41"
"Glascock","Glascock","Gibson","US","GA","3J","0",,"0","0",,"0.0","0.0",,,"2357.0","2672.0","-0.1179","90.0","0","0","0","0","0","0","82.38","33.13"
"Glynn","Glynn","Brunswick","US","GA","3K","0",,"7","0",,"11.2007168458781","0.0",,,"62496.0","41954.0","0.4896","358.0","1","0","0","1","0","0","81.3","31.09"
"Gordon","Gordon","Calhoun","US","GA","3L","0",,"3","0",,"8.55383211678832","0.0",,,"35072.0","19228.0","0.824","214.0","0","0","0","1","0","0","84.56","34.31"
"Grady","Grady","Cairo","US","GA","3M","0","Cairo/Whigham","7","4",,"34.5184673800483","19.7248385028848",,,"20279.0","18015.0","0.1257","211.0","0","0","0","0","0","0","84.12","30.52"
"Greene","Greene","Greensboro","US","GA","3N","0",,"2","0",,"16.9592130925125","0.0",,,"11793.0","11192.0","0.0537","188.0","0","0","0","1","0","0","83.1","33.33"
"Gwinnett","Gwinnett","Lawrenceville","US","GA","3O","0",,"23","0",,"6.51724235640815","0.0",,,"352910.0","43541.0","7.1052","238.0","0","1","0","1","0","0","83.59","33.58"
"Habersham","Habersham","Clarkesville","US","GA","3P","0",,"2","1",,"7.24086745592122","3.62043372796061",,,"27621.0","18116.0","0.5247","293.0","0","0","0","1","0","0","83.32","34.36"
"Hall","Hall","Gainesville","US","GA","3Q","0",,"12","0",,"12.5749255983569","0.0",,,"95428.0","49739.0","0.9186","261.0","0","1","0","1","0","0","83.5","34.17"
"Hancock","Hancock","Sparta","US","GA","3R","0",,"0","0",,"0.0","0.0",,,"8908.0","9979.0","-0.1073","159.0","0","1","0","0","0","0","82.58","33.17"
"Haralson","Haralson","Buchanan","US","GA","3S","0",,"0","0",,"0.0","0.0",,,"21966.0","14543.0","0.5104","215.0","0","0","0","1","0","0","85.13","33.48"
"Harris","Harris","Hamilton","US","GA","3T","0",,"4","0",,"22.4870699347875","0.0",,,"17788.0","11167.0","0.5929","213.0","0","1","0","1","0","0","84.54","32.44"
"Hart","Hart","Hartwell","US","GA","3U","0",,"1","1",,"5.07305194805195","5.07305194805195",,,"19712.0","15229.0","0.2944","235.0","0","1","0","0","0","0","82.57","34.22"
"Heard","Heard","Franklin","US","GA","3V","0","Franklin","7","4",,"81.131200741771","46.3606861381548",,,"8628.0","5333.0","0.6179","192.0","0","1","1","0","0","0","85.1","33.25"
"Henry","Henry","McDonough","US","GA","3W","0",,"10","2",,"17.0238845099675","3.4047769019935",,,"58741.0","17619.0","2.334","259.0","0","0","0","1","0","0","84.09","33.25"
"Houston","Houston","Perry","US","GA","3X","0",,"19","2",,"21.2985382476908","2.24195139449377",,,"89208.0","39154.0","1.2784","416.0","0","0","0","1","1","0","83.45","32.27"
"Irwin","Irwin","Ocilla","US","GA","3Y","0",,"0","0",,"0.0","0.0",,,"8649.0","9211.0","-0.061","185.0","0","0","0","0","0","0","83.16","31.35"
"Jackson","Jackson","Jefferson","US","GA","3Z","0",,"2","0",,"6.66555574070988","0.0",,,"30005.0","18499.0","0.622","192.0","0","0","0","1","0","0","83.35","34.06"
"Jasper","Jasper","Monticello","US","GA","4A","0",,"0","0",,"0.0","0.0",,,"8453.0","6135.0","0.3778","240.0","0","0","0","0","0","0","83.41","33.19"
"Jeff Davis","Jeff Davis","Hazlehurts","US","GA","4B","0",,"1","0",,"8.31117021276596","0.0",,,"12032.0","8914.0","0.3498","208.0","0","0","0","0","0","0","82.34","31.53"
"Jefferson","Jefferson","Louisville","US","GA","4C","0",,"0","0",,"0.0","0.0",,,"17408.0","17468.0","-0.0034","172.0","0","0","0","0","0","0","82.24","33.0"
"Jenkins","Jenkins","Millen","US","GA","4D","0",,"1","0",,"12.1256214380987","0.0",,,"8247.0","9148.0","-0.0985","197.0","0","0","1","0","0","0","81.58","32.48"
"Johnson","Johnson","Wrightsville","US","GA","4E","0",,"1","0",,"12.0062432464882","0.0",,,"8329.0","8048.0","0.0349","196.0","0","0","0","0","0","0","82.45","32.44"
"Jones","Jones","Gray","US","GA","4F","0",,"1","0",,"4.82183326100583","0.0",,,"20739.0","8468.0","1.4491","214.0","0","0","0","0","0","0","83.33","33.01"
"Lamar","Lamar","Barnesville","US","GA","4G","0",,"3","1",,"23.0096640589047","7.66988801963491",,,"13038.0","10240.0","0.2732","271.0","0","0","0","1","0","0","84.09","33.04"
"Lanier","Lanier","Lakeland","US","GA","4H","0",,"2","1",,"36.1598264328331","18.0799132164166",,,"5531.0","5097.0","0.0851","194.0","0","0","0","0","1","0","83.05","31.03"
"Laurens","Laurens","Dublin","US","GA","4I","0",,"4","0",,"10.0030009002701","0.0",,,"39988.0","32313.0","0.2375","246.0","0","0","1","1","0","0","82.54","32.31"
"Lee","Lee","Leesburg","US","GA","4J","0",,"3","0",,"18.4615384615385","0.0",,,"16250.0","6204.0","1.6193","232.0","0","1","0","0","0","0","84.11","31.44"
"Liberty","Liberty","Hinesville","US","GA","4K","0",,"3","1",,"5.68774291402029","1.89591430467343",,,"52745.0","14487.0","2.6409","314.0","1","0","1","1","1","0","81.36","31.53"
"Lincoln","Lincoln","Lincolnton","US","GA","4L","0",,"1","0",,"13.437248051599","0.0",,,"7442.0","5906.0","0.2601","181.0","0","1","0","0","0","0","82.29","33.47"
"Long","Long","Ludowici","US","GA","4M","0",,"0","0",,"0.0","0.0",,,"6202.0","3874.0","0.6009","168.0","0","0","1","0","0","0","81.45","31.42"
"Lowndes","Lowndes","Valdosta","US","GA","4N","0",,"12","2",,"15.7934220397205","2.63223700662008",,,"75981.0","49270.0","0.5421","358.0","0","0","0","1","1","0","83.51","30.51"
"Lumpkin","Lumpkin","Dahlonega","US","GA","4O","0",,"0","0",,"0.0","0.0",,,"14573.0","7241.0","1.0126","234.0","0","0","0","0","0","0","83.59","34.31"
"McDuffie","McDuffie","Thomson","US","GA","4P","0",,"4","1",,"19.881703862021","4.97042596550524",,,"20119.0","12627.0","0.5933","270.0","0","1","0","1","0","0","82.31","33.28"
"McIntosh","McIntosh","Darien","US","GA","4Q","0",,"0","0",,"0.0","0.0",,,"8634.0","6364.0","0.3567","187.0","1","0","0","1","0","0","81.27","31.23"
"Macon","Macon","Oglethorpe","US","GA","4R","0",,"1","0",,"7.62543846271161","0.0",,,"13114.0","13170.0","-0.0043","198.0","0","0","0","0","0","0","84.04","32.16"
"Madison","Madison","Danielsville","US","GA","4S","0",,"3","1",,"14.2517814726841","4.75059382422803",,,"21050.0","11246.0","0.8718","211.0","0","0","0","0","0","0","83.13","34.07"
"Marion","Marion","Buena Vista","US","GA","4T","0",,"2","1",,"35.778175313059","17.8890876565295",,,"5590.0","5477.0","0.0206","185.0","0","0","0","0","1","0","84.32","32.18"
"Meriwether","Meriwether","Greenville","US","GA","4U","0","Manchester","19","3",,"84.7797956360716","13.386283521485",,,"22411.0","19756.0","0.1344","235.0","0","0","0","1","0","0","84.7","33.0"
"Miller","Miller","Colquitt","US","GA","4V","0",,"0","0",,"0.0","0.0",,,"6280.0","6908.0","-0.0909","170.0","0","0","0","0","0","0","84.43","31.11"
"Mitchell","Mitchell","Camilla","US","GA","4W","0","Camilla/Pelham","7","2",,"34.5252774352651","9.86436498150432",,,"20275.0","19652.0","0.0317","222.0","0","0","1","0","0","0","84.13","31.14"
"Monroe","Monroe","Forsyth","US","GA","4X","0",,"0","0",,"0.0","0.0",,,"17113.0","10495.0","0.6306","252.0","0","0","0","1","0","0","83.58","33.02"
"Montgomery","Montgomery","Mount Vernon","US","GA","4Y","0",,"1","1",,"13.9606310205221","13.9606310205221",,,"7163.0","6284.0","0.1399","168.0","0","0","1","0","0","0","82.56","32.11"
"Morgan","Morgan","Madison","US","GA","4Z","0",,"1","1",,"7.76216719708142","7.76216719708142",,,"12883.0","10280.0","0.2532","224.0","0","0","0","1","0","0","83.3","33.33"
"Murray","Murray","Chatsworth","US","GA","5A","0",,"3","0",,"11.4735916166291","0.0",,,"26147.0","10447.0","1.5028","182.0","0","0","0","0","0","0","84.46","34.49"
"Muscogee","Muscogee","Columbus","US","GA","5B","0",,"21","4",,"11.7136514240453","2.23117169981816",,,"179278.0","158623.0","0.1302","393.0","0","1","1","1","1","0","84.59","32.28"
"Newton","Newton","Covington","US","GA","5C","0",,"5","0",,"11.9594336012246","0.0",,,"41808.0","20999.0","0.991","199.0","0","0","0","1","0","0","83.52","33.35"
"Oconee","Oconee","Watkinsville","US","GA","5D","0",,"1","0",,"5.67601316835055","0.0",,,"17618.0","6304.0","1.7947","222.0","0","0","0","0","0","0","83.26","33.51"
"Oglethorpe","Oglethorpe","Lexington","US","GA","5E","0",,"0","0",,"0.0","0.0",,,"9763.0","7926.0","0.2318","178.0","0","0","0","0","0","0","83.1","33.8"
"Paulding","Paulding","Dallas","US","GA","5F","0",,"4","0",,"9.61284275792459","0.0",,,"41611.0","13101.0","2.1762","166.0","0","0","0","0","0","0","84.51","33.55"
"Peach","Peach","Fort Valley","US","GA","5G","0",,"0","0",,"0.0","0.0",,,"21189.0","13846.0","0.5303","296.0","0","0","0","1","0","0","83.56","32.32"
"Pickens","Pickens","Jasper","US","GA","5H","0",,"0","0",,"0.0","0.0",,,"14432.0","8903.0","0.621","202.0","0","0","0","0","0","0","84.27","34.28"
"Pierce","Pierce","Blackshear","US","GA","5I","0",,"2","0",,"15.0060024009604","0.0",,,"13328.0","9678.0","0.3771","206.0","0","0","0","0","0","0","82.16","31.19"
"Pike","Pike","Zebulon","US","GA","5J","0",,"0","0",,"0.0","0.0",,,"10224.0","7138.0","0.4323","206.0","0","0","0","0","0","0","84.3","33.1"
"Polk","Polk","Cedartown","US","GA","5K","0",,"2","0",,"5.91453496968801","0.0",,,"33815.0","28015.0","0.207","210.0","0","0","0","0","0","0","85.15","34.01"
"Pulaski","Pulaski","Hawkinsville","US","GA","5L","0",,"2","0",,"24.6669955599408","0.0",,,"8108.0","8204.0","-0.0117","208.0","0","0","1","0","0","0","83.29","32.16"
"Putnam","Putnam","Eatonton","US","GA","5M","0",,"1","0",,"7.07363655655372","0.0",,,"14137.0","7798.0","0.8129","232.0","0","1","0","0","0","0","83.24","33.2"
"Quitman","Quitman","Georgetown","US","GA","5N","0",,"0","0",,"0.0","0.0",,,"2209.0","2432.0","-0.0917","157.0","0","1","0","0","0","0","85.07","31.03"
"Rabun","Rabun","Clayton","US","GA","5O","0",,"5","3",,"42.9258241758242","25.7554945054945",,,"11648.0","7456.0","0.5622","254.0","0","1","1","0","0","0","83.24","34.52"
"Randolph","Randolph","Cuthbert","US","GA","5P","0",,"0","0",,"0.0","0.0",,,"8023.0","11078.0","-0.2758","252.0","0","0","0","0","0","0","84.48","31.45"
"Richmond","Richmond","Augusta","US","GA","5Q","0",,"19","1",,"8.10725471287517","0.426697616467114",,,"234358.0","135601.0","0.7283","361.0","0","0","1","1","0","0","82.0","33.29"
"Rockdale","Rockdale","Conyers","US","GA","5R","0",,"5","1",,"9.24368194339169","1.84873638867834",,,"54091.0","10572.0","4.1164","230.0","0","0","0","1","0","0","84.01","33.41"
"Schley","Schley","Ellaville","US","GA","5S","0",,"0","0",,"0.0","0.0",,,"3588.0","3256.0","0.102","224.0","0","0","0","0","0","0","84.2","32.12"
"Screven","Screven","Sylvania","US","GA","5T","0",,"8","0",,"57.7951163126716","0.0",,,"13842.0","14919.0","-0.0722","223.0","0","0","1","0","0","0","81.4","32.45"
"Seminole","Seminole","Donalsonville","US","GA","5U","0",,"0","0",,"0.0","0.0",,,"9010.0","6802.0","0.3246","197.0","0","0","1","0","0","0","84.54","31.03"
"Spalding","Spalding","Griffin","US","GA","5V","1","Griffin","11","5",,"20.1994233982775","9.18155609012615",,"267","54457.0","35404.0","0.5382","239.0","0","0","0","0","0","0","84.17","33.15"
"Stephens","Stephens","Toccoa","US","GA","5W","0",,"4","1",,"17.1991228447349","4.29978071118373",,,"23257.0","18391.0","0.2646","292.0","0","1","0","0","0","0","83.21","34.34"
"Stewart","Stewart","Lumpkin","US","GA","5X","0",,"0","0",,"0.0","0.0",,,"5654.0","7371.0","-0.2329","180.0","0","1","0","0","0","0","84.49","32.03"
"Sumter","Sumter","Americus","US","GA","5Y","0",,"6","0",,"19.8491464867011","0.0",,,"30228.0","24652.0","0.2262","278.0","0","1","0","0","0","0","84.14","32.04"
"Talbot","Talbot","Talbotton","US","GA","5Z","0",,"2","1",,"30.6560392397302","15.3280196198651",,,"6524.0","7127.0","-0.0846","185.0","0","0","0","0","0","0","84.31","32.41"
"Taliaferro","Taliaferro","Crawfordville","US","GA","6A","0",,"1","0",,"52.2193211488251","0.0",,,"1915.0","3370.0","-0.4318","257.0","0","0","0","1","0","0","82.56","33.33"
"Tattnall","Tattnall","Reidsville","US","GA","6B","0",,"2","1",,"11.285407967498","5.64270398374901",,,"17722.0","15837.0","0.119","198.0","0","0","1","0","0","0","82.07","32.04"
"Taylor","Taylor","Butler","US","GA","6C","0",,"1","0",,"13.0855796911803","0.0",,,"7642.0","8311.0","-0.0805","183.0","0","0","0","0","0","0","84.16","32.33"
"Telfair","Telfair","McRae","US","GA","6D","0",,"0","0",,"0.0","0.0",,,"11000.0","11715.0","-0.061","204.0","0","0","1","0","0","0","82.55","32.02"
"Terrell","Terrell","Dawson","US","GA","6E","0","Bronwood/Dawson","6","2",,"56.3221627710504","18.7740542570168",,,"10653.0","12742.0","-0.1639","236.0","0","0","0","0","0","0","84.27","31.47"
"Thomas","Thomas","Thomasville","US","GA","6F","0",,"4","2",,"10.2600933668496","5.13004668342482",,,"38986.0","34319.0","0.136","273.0","0","0","0","0","0","0","83.59","30.5"
"Tift","Tift","Tifton","US","GA","6G","0",,"5","0",,"14.2865306588948","0.0",,,"34998.0","23487.0","0.4901","270.0","0","0","0","1","0","0","83.31","31.27"
"Toombs","Toombs","Lyons","US","GA","6H","0",,"3","1",,"12.4626121635095","4.15420405450316",,,"24072.0","16837.0","0.4297","232.0","0","0","1","0","0","0","82.19","32.12"
"Towns","Towns","Hiawassee","US","GA","6I","0",,"0","0",,"0.0","0.0",,,"6754.0","4538.0","0.4883","263.0","0","1","0","0","0","0","83.44","34.58"
"Treutlen","Treutlen","Soperton","US","GA","6J","0",,"0","0",,"0.0","0.0",,,"5994.0","5874.0","0.0204","146.0","0","0","0","1","0","0","82.37","32.23"
"Troup","Troup","La Grande","US","GA","6K","1","Lagrange","43","11",,"77.4272543935465","19.8069720541631",,"98","55536.0","47189.0","0.1769","251.0","0","1","1","1","0","0","85.03","33.03"
"Turner","Turner","Ashburn","US","GA","6L","0",,"3","1",,"34.4708721130645","11.4902907043548",,,"8703.0","8439.0","0.0313","226.0","0","0","0","1","0","0","83.41","31.42"
"Twiggs","Twiggs","Jeffersonville","US","GA","6M","0",,"0","0",,"0.0","0.0",,,"9806.0","7935.0","0.2358","150.0","0","0","0","1","0","0","83.21","32.41"
"Union","Union","Blairsville","US","GA","6N","0",,"3","0",,"25.0145918452431","0.0",,,"11993.0","6510.0","0.8422","173.0","0","1","0","0","0","0","83.52","34.52"
"Upson","Upson","Thomaston","US","GA","6O","0",,"1","1",,"3.80228136882129","3.80228136882129",,,"26300.0","23800.0","0.105","239.0","0","0","0","0","0","0","84.2","32.55"
"Walker","Walker","La Fayette","US","GA","6P","0",,"3","0",,"5.14226945491944","0.0",,,"58340.0","45264.0","0.2889","251.0","0","0","0","0","0","0","85.18","34.42"
"Walton","Walton","Monroe","US","GA","6Q","0",,"2","0",,"5.18322707717825","0.0",,,"38586.0","20481.0","0.884","202.0","0","0","0","0","0","0","83.43","33.47"
"Ware","Ware","Waycross","US","GA","6R","0",,"5","1",,"14.0960221025627","2.81920442051253",,,"35471.0","34219.0","0.0366","333.0","0","0","0","0","0","0","82.22","31.12"
"Warren","Warren","Warrenton","US","GA","6S","0",,"2","0",,"32.9055610398157","0.0",,,"6078.0","7360.0","-0.1742","205.0","0","0","1","0","0","0","82.4","33.23"
"Washington","Washington","Sandersville","US","GA","6T","0",,"6","0",,"31.3938886563416","0.0",,,"19112.0","18903.0","0.0111","196.0","0","0","1","0","0","0","82.49","32.59"
"Wayne","Wayne","Jesup","US","GA","6U","0",,"4","0",,"17.8922884236894","0.0",,,"22356.0","17921.0","0.2475","274.0","0","0","1","0","0","0","81.54","31.36"
"Webster","Webster","Preston","US","GA","6V","0",,"0","0",,"0.0","0.0",,,"2263.0","3247.0","-0.303","65.0","0","0","0","0","0","0","84.32","32.03"
"Wheeler","Wheeler","Alamo","US","GA","6W","0",,"0","0",,"0.0","0.0",,,"4903.0","5342.0","-0.0822","135.0","0","0","1","0","0","0","82.49","32.09"
"White","White","Cleveland","US","GA","6X","0",,"4","0",,"30.7550361371675","0.0",,,"13006.0","6935.0","0.8754","189.0","0","0","0","0","0","0","83.48","34.43"
"Whitfield","Whitfield","Dalton","US","GA","6Y","0",,"5","0",,"6.90016836410808","0.0",,,"72462.0","42109.0","0.7208","244.0","0","0","0","1","0","0","84.59","34.46"
"Wilcox","Wilcox","Abbeville","US","GA","6Z","0",,"0","0",,"0.0","0.0",,,"7008.0","7904.0","-0.1134","214.0","0","0","1","0","0","0","83.19","31.59"
"Wilkes","Wilkes","Washington","US","GA","7A","0",,"1","1",,"9.43663300934227","9.43663300934227",,,"10597.0","10961.0","-0.0332","275.0","0","1","0","0","0","0","82.46","33.43"
"Wilkinson","Wilkinson","Irwinton","US","GA","7B","0",,"1","0",,"9.77708251857646","0.0",,,"10228.0","9250.0","0.1057","204.0","0","0","1","0","0","0","83.1","32.47"
"Worth","Worth","Sylvester","US","GA","7C","0",,"0","0",,"0.0","0.0",,,"19745.0","16682.0","0.1836","197.0","0","0","1","0","0","0","83.52","31.32"
"Hawaii","Hawaii","Hilo","P","HI","01","1",,"23","5",,"19.1161681225429","4.15568872229195",,"390","120317.0","61332.0","0.9617","302.0","1","0","0","1","0","0","155.04","19.42"
"Honolulu","Honolulu","Honolulu","P","HI","02","1",,"104","15",,"12.4367549158068","1.79376272824136",,"505","836231.0","315000.0","1.6547","512.0","1","0","0","1","1","1","157.5","21.19"
"Kalawao","Kalawao","Kaiaupapa","P","HI","03","0",,"0","0",,"0.0","0.0",,,"279.0","279.0",,"132.0","1","0","0","0","0","0","156.9","21.2"
"Kauai","KAUAI","Lihue","P","HI","04","0",,"16","3",,"31.264044394943","5.86200832405182",,,"51177.0","28176.0","0.8163","255.0","1","0","0","1","0","0","159.23","21.59"
"Maui","Maui","Wailuku","P","HI","05","0",,"19","2",,"18.9292047741447","1.9925478709626",,,"100374.0","42576.0","1.3575","279.0","1","0","0","1","0","0","156.3","20.54"
"Ada","Ada","Boise","US","ID","01","0","Boise/Meridian/Nampa","77","4",,"37.4195116024784","1.94387073259628",,,"205775.0","93460.0","1.2017","572.0","0","0","1","1","0","0","116.12","43.38"
"Adams","Adams","Council","US","ID","02","0",,"3","3",,"92.1942224953903","92.1942224953903",,,"3254.0","2978.0","0.0927","392.0","0","0","1","0","0","0","116.27","44.44"
"Bannock","Bannock","Pocatello","US","ID","03","0",,"12","1",,"18.1746584678763","1.51455487232302",,,"66026.0","49342.0","0.3381","535.0","0","0","0","1","0","0","112.26","42.53"
"Bear Lake","Bear Lake","Paris","US","ID","04","0",,"1","0",,"16.4365548980934","0.0",,,"6084.0","7148.0","-0.1489","501.0","0","1","0","0","0","0","111.24","42.15"
"Benewah","Benewah","Saint Maries","US","ID","05","0",,"3","0",,"37.7976565452942","0.0",,,"7937.0","6036.0","0.3149","359.0","0","0","0","0","0","0","116.34","47.19"
"Bingham","Bingham","Blackfoot","US","ID","06","1","Shelley","16","5",,"42.5724396668707","13.3038873958971",,"154","37583.0","28218.0","0.3319","478.0","0","1","1","1","1","1","112.2","43.13"
"Blaine","Blaine","Hailey","US","ID","07","0","Hailey","8","2",,"59.0318772136954","14.7579693034238",,,"13552.0","4598.0","1.9474","529.0","0","1","1","0","0","0","114.19","43.31"
"Boise","Boise","Idaho City","US","ID","08","0","Horseshoe Bend","5","1",,"142.490738102023","28.4981476204047",,,"3509.0","1646.0","1.1318","382.0","0","1","0","0","0","0","115.5","43.1"
"Bonner","Bonner","Sandpoint","US","ID","09","0",,"14","2",,"52.5880850424461","7.5125835774923",,,"26622.0","15587.0","0.708","398.0","0","1","0","0","0","0","116.34","48.17"
"Bonneville","Bonneville","Idaho Falls","US","ID","10","0",,"19","2",,"26.3132383286939","2.76981456091515",,,"72207.0","46906.0","0.5394","598.0","0","1","1","1","1","1","112.01","43.3"
"Boundary","Boundary","Bonners Ferry","US","ID","11","0",,"1","1",,"12.0019203072492","12.0019203072492",,,"8332.0","5809.0","0.4343","338.0","0","0","0","0","0","0","116.2","48.41"
"Butte","Butte","Arco","US","ID","12","0",,"2","1",,"86.2812769628991","43.1406384814495",,,"2318.0","3498.0","-0.3373","513.0","0","0","0","0","1","1","113.18","43.38"
"Camas","Camas","Fairfield","US","ID","13","0",,"0","0",,"0.0","0.0",,,"727.0","917.0","-0.2072","553.0","0","0","0","0","0","0","114.46","43.21"
"Canyon","Canyon","Caldwell","US","ID","14","0",,"16","1",,"17.7627780984946","1.11017363115591",,,"90076.0","57662.0","0.5621","418.0","0","1","1","1","0","0","116.4","43.39"
"Caribou","Caribou","Soda Springs","US","ID","15","1","Burley","15","5",,"215.4243860405","71.8081286801666",,"20","6963.0","5976.0","0.1652","509.0","0","1","0","0","0","0","113.77","42.53"
"Cassia","Cassia","Burley","US","ID","16","0",,"2","1",,"10.2396067990989","5.11980339954946",,,"19532.0","16121.0","0.2116","481.0","0","1","1","1","0","0","113.48","42.32"
"Clark","Clark","Dubois","US","ID","17","0",,"0","0",,"0.0","0.0",,,"762.0","915.0","-0.1672","481.0","0","0","0","1","0","0","112.13","44.1"
"Clearwater","Clearwater","Orofino","US","ID","18","0",,"7","5",,"82.3045267489712","58.7889476778366",,,"8505.0","8548.0","-0.005","364.0","0","1","0","0","0","0","116.15","46.3"
"Custer","Custer","Challis","US","ID","19","0",,"2","2",,"48.390999274135","48.390999274135",,,"4133.0","2996.0","0.3795","457.0","0","0","0","0","0","0","114.15","44.3"
"Elmore","Elmore","Mountain Home","US","ID","20","0","Mountain Home","13","4",,"61.30629568498","18.8634755953784",,,"21205.0","16719.0","0.2683","610.0","0","1","1","1","1","0","115.42","43.09"
"Franklin","Franklin","Preston","US","ID","21","0",,"0","0",,"0.0","0.0",,,"9232.0","8457.0","0.0916","516.0","0","0","0","0","0","0","111.53","42.06"
"Fremont","Fremont","Saint Anthony","US","ID","22","0",,"1","1",,"9.1432751211484","9.1432751211484",,,"10937.0","8679.0","0.2602","455.0","0","1","0","0","0","0","111.4","43.59"
"Gem","Gem","Emmett","US","ID","23","0","Emmett","5","0",,"42.2154677473826","0.0",,,"11844.0","9127.0","0.2977","359.0","0","0","0","0","0","0","116.3","43.53"
"Gooding","Gooding","Gooding","US","ID","24","0",,"2","1",,"17.1924696982722","8.59623484913608",,,"11633.0","9544.0","0.2189","437.0","0","0","1","1","0","0","114.44","42.56"
"Idaho","Idaho","Orangeville","US","ID","25","0","Cottonwood Butte","13","4",,"94.3190887324966","29.0212580715374",,,"13783.0","13542.0","0.0178","411.0","0","0","1","0","0","0","116.07","45.56"
"Jefferson","Jefferson","Rigby","US","ID","26","0",,"4","1",,"24.1794112313365","6.04485280783413",,,"16543.0","11672.0","0.4173","457.0","0","1","0","1","1","1","111.56","43.4"
"Jerome","Jerome","Jerome","US","ID","27","0",,"3","0",,"19.8176773682124","0.0",,,"15138.0","11712.0","0.2925","427.0","0","1","1","1","0","0","114.31","42.44"
"Kootenai","Kootenai","cur D'Alene","US","ID","28","0",,"21","4",,"30.0881151944982","5.73106956085679",,,"69795.0","29556.0","1.3614","426.0","0","1","0","1","0","0","116.46","47.4"
"Latah","Latah","Moscow","US","ID","29","0","Moscow","11","2",,"35.9277525557697","6.53231864650358",,,"30617.0","21170.0","0.4462","562.0","0","0","0","0","0","0","117.0","46.44"
"Lemhi","Lemhi","Salmon","US","ID","30","0",,"3","0",,"43.4845629801421","0.0",,,"6899.0","5816.0","0.1862","424.0","0","0","0","0","0","0","113.55","45.11"
"Lewis","Lewis","Nezperce","US","ID","31","0",,"0","0",,"0.0","0.0",,,"3516.0","4423.0","-0.2051","523.0","0","0","0","0","0","0","116.14","46.15"
"Lincoln","Lincoln","Shoshone","US","ID","32","0",,"1","0",,"30.229746070133","0.0",,,"3308.0","3686.0","-0.1026","480.0","0","0","0","0","0","0","114.25","42.57"
"Madison","Madison","Rexburg","US","ID","33","0",,"3","2",,"12.6721297626088","8.44808650840585",,,"23674.0","9417.0","1.514","507.0","0","0","0","0","0","0","111.48","43.5"
"Minidoka","Minidoka","Rupert","US","ID","34","0",,"1","0",,"5.16502246784774","0.0",,,"19361.0","14394.0","0.3451","461.0","0","0","1","1","0","0","113.4","42.37"
"Nez Perce","Nez Perce","Lewiston","US","ID","35","0",,"11","0",,"32.588730224566","0.0",,,"33754.0","27066.0","0.2471","481.0","0","0","1","0","0","0","117.0","46.25"
"Oneida","Oneida","Malad City","US","ID","36","0",,"1","0",,"28.6368843069874","0.0",,,"3492.0","3603.0","-0.0308","459.0","0","0","0","1","0","0","112.15","42.12"
"Owyhee","Owyhee","Murphy","US","ID","37","0",,"2","0",,"23.8322211630124","0.0",,,"8392.0","6375.0","0.3164","391.0","0","0","1","0","0","0","116.32","43.14"
"Payette","Payette","Payette","US","ID","38","0",,"7","1",,"42.5946209078739","6.08494584398199",,,"16434.0","12363.0","0.3293","408.0","0","0","1","1","0","0","116.56","44.04"
"Power","Power","American Falls","US","ID","39","0","American Falls","5","1",,"70.5616709003669","14.1123341800734",,,"7086.0","4111.0","0.7237","427.0","0","1","1","1","0","0","112.5","42.47"
"Shoshone","Shoshone","Wallace","US","ID","40","0","Avery/Eagle/Mullan","7","2",,"50.2476491278444","14.3564711793841",,,"13931.0","20876.0","-0.3327","410.0","0","0","0","1","0","0","115.55","47.28"
"Teton","Teton","Driggs","US","ID","41","0",,"1","0",,"29.0782204129107","0.0",,,"3439.0","2639.0","0.3031","510.0","0","0","0","0","0","0","111.08","43.45"
"Twin Falls","Twin Falls","Twin Falls","US","ID","42","1","Twin Falls","28","5",,"52.2583053378126","9.33184023889511",,"165","53580.0","41842.0","0.2805","482.0","0","0","1","0","0","0","114.3","42.34"
"Valley","Valley","Cascade","US","ID","43","1","McCall","8","7",,"130.954329677525","114.585038467834",,"16","6109.0","3663.0","0.6678","513.0","0","1","0","0","0","0","116.04","44.3"
"Washington","Washington","Weiser","US","ID","44","0",,"2","0",,"23.3918128654971","0.0",,,"8550.0","8378.0","0.0205","408.0","0","1","1","0","0","0","116.59","44.15"
"Adams","Adams","Quincy","US","IL","1A","1","Quincy","23","6",,"34.8010288999849","9.07852927825692",,"206","66090.0","68467.0","-0.0347","374.0","0","0","1","0","0","0","91.22","39.55"
"Alexander","Alexander","Cairo","US","IL","1B","0","Cairo","11","3",,"103.51966873706","28.2326369282891",,,"10626.0","16061.0","-0.3384","257.0","0","0","1","1","0","0","89.09","37.01"
"Bond","Bond","Greenville","US","IL","1C","0",,"7","2",,"46.6946834767527","13.3413381362151",,,"14991.0","14060.0","0.0662","301.0","0","1","0","1","0","0","89.24","38.54"
"Boone","Boone","Belvidere","US","IL","1D","0","Belvidere","14","3",,"45.4456923975849","9.73836265662533",,,"30806.0","20326.0","0.5156","376.0","0","0","0","1","0","0","88.5","42.5"
"Brown","Brown","Mount Sterling","US","IL","1E","0",,"4","2",,"68.5400959561343","34.2700479780672",,,"5836.0","6210.0","-0.0602","323.0","0","0","1","0","0","0","90.49","39.59"
"Bureau","Bureau","Princeton","US","IL","1F","0",,"4","1",,"11.2082492714638","2.80206231786595",,,"35688.0","37594.0","-0.0507","412.0","0","0","0","1","0","0","89.27","41.23"
